"","objectid","dc_dist","psa","dispatch_date_time","dispatch_date","dispatch_time","hour","dc_key","location_block","ucr_general","text_general_code","point_x","point_y","lat","lng","year","GunViolence"
"1",8,"22","N",2008-10-13 00:12:00,2008-10-12,20:12:00,20,200822073130,"2800 BLOCK W YORK ST",300,"Robbery Firearm",-75.17795548,39.9922737,39.9922737,-75.17795548,"2008","Y"
"2",15,"18","F",2008-10-13 04:17:00,2008-10-13,00:17:00,0,200818073934,"4700 BLOCK PINE ST",300,"Robbery Firearm",-75.21635189,39.95231182,39.95231182,-75.21635189,"2008","Y"
"3",19,"15","D",2008-07-30 03:34:00,2008-07-29,23:34:00,23,200815086879,"4300 BLOCK ELIZABETH ST",400,"Aggravated Assault Firearm",-75.09213003,40.01300809,40.01300809,-75.09213003,"2008","Y"
"4",21,"15","U",2008-09-09 23:11:00,2008-09-09,19:11:00,19,200815104083,"6800 BLOCK ERDRICK ST",400,"Aggravated Assault Firearm",-75.04924996,40.03035928,40.03035928,-75.04924996,"2008","Y"
"5",39,"12","F",2008-09-22 07:46:00,2008-09-22,03:46:00,3,200812084626,"ISLAND AV  /  WOODLAND AV",300,"Robbery Firearm",-75.24631047,39.91718536,39.91718536,-75.24631047,"2008","Y"
"6",62,"15","G",2008-12-22 09:25:00,2008-12-22,04:25:00,4,200815142579,"1300 BLOCK BRIDGE ST",300,"Robbery Firearm",-75.08138179,40.02632341,40.02632341,-75.08138179,"2008","Y"
"7",75,"04","C",2008-08-16 07:02:00,2008-08-16,03:02:00,3,200804037688,"S 09TH ST  /  MIFFLIN ST",300,"Robbery Firearm",-75.1607671,39.92572625,39.92572625,-75.1607671,"2008","Y"
"8",88,"15","F",2008-07-06 11:50:00,2008-07-06,07:50:00,7,200815077350,"1600 BLOCK UNITY ST",300,"Robbery Firearm",-75.08765747,40.01243913,40.01243913,-75.08765747,"2008","Y"
"9",112,"35","S",2008-08-11 00:49:00,2008-08-10,20:49:00,20,200835075178,"N 10TH ST  /  W DUNCANNON AV",300,"Robbery Firearm",-75.13930636,40.03129714,40.03129714,-75.13930636,"2008","Y"
"10",317,"22","N",2008-09-23 23:24:00,2008-09-23,19:24:00,19,200822068662,"2800 BLOCK W CUMBERLAND ST",400,"Aggravated Assault Firearm",-75.17818956,39.9938206,39.9938206,-75.17818956,"2008","Y"
"11",176,"15","H",2008-11-07 18:47:00,2008-11-07,13:47:00,13,200815126581,"PRATT ST  /  DARRAH ST",300,"Robbery Firearm",-75.07715183,40.02160469,40.02160469,-75.07715183,"2008","Y"
"12",180,"06","S",2008-10-19 04:57:00,2008-10-19,00:57:00,0,200806059726,"N 06TH ST  /  FAIRMOUNT AV",300,"Robbery Firearm",-75.14779959,39.96353615,39.96353615,-75.14779959,"2008","Y"
"13",229,"19","K",2008-11-18 21:14:00,2008-11-18,16:14:00,16,200819094289,"1800 BLOCK N 57TH ST",300,"Robbery Firearm",-75.23588253,39.9794387,39.9794387,-75.23588253,"2008","Y"
"14",479,"24","M",2008-07-10 22:13:00,2008-07-10,18:13:00,18,200824059338,"2800 BLOCK TULIP ST",400,"Aggravated Assault Firearm",-75.11667616,39.98477152,39.98477152,-75.11667616,"2008","Y"
"15",699,"26","B",2008-11-01 05:57:00,2008-11-01,01:57:00,1,200826071327,"2300 BLOCK E FIRTH ST",300,"Robbery Firearm",-75.12322075,39.98135244,39.98135244,-75.12322075,"2008","Y"
"16",706,"25","P",2008-08-04 20:17:00,2008-08-04,16:17:00,16,200825084255,"3700 BLOCK GERMANTOWN AVE",300,"Robbery Firearm",-75.1508127,40.0092058,40.0092058,-75.1508127,"2008","Y"
"17",715,"17","Q",2008-11-09 21:04:00,2008-11-09,16:04:00,16,200817055126,"1300 BLOCK S HOLLYWOOD ST",400,"Aggravated Assault Firearm",-75.1926001,39.93736526,39.93736526,-75.1926001,"2008","Y"
"18",662,"24","N",2008-10-26 23:45:00,2008-10-26,19:45:00,19,200824094225,"1200 BLOCK LUZERNE ST",300,"Robbery Firearm",-75.14723062,40.01408948,40.01408948,-75.14723062,"2008","Y"
"19",829,"19","W",2008-12-28 21:08:00,2008-12-28,16:08:00,16,200819105444,"200 BLOCK N AVONDALE ST",300,"Robbery Firearm",-75.24875513,39.96613513,39.96613513,-75.24875513,"2008","Y"
"20",841,"35","S",2008-08-15 03:36:00,2008-08-14,23:36:00,23,200835076703,"1000 BLOCK W DUNCANNON AVE",400,"Aggravated Assault Firearm",-75.13930636,40.03129714,40.03129714,-75.13930636,"2008","Y"
"21",846,"24","P",2008-09-16 02:49:00,2008-09-15,22:49:00,22,200824081143,"3100 BLOCK WEYMOUTH ST",400,"Aggravated Assault Firearm",-75.11687704,39.99695211,39.99695211,-75.11687704,"2008","Y"
"22",941,"16","C",2008-08-29 15:26:00,2008-08-29,11:26:00,11,200816048778,"3400 BLOCK FAIRMOUNT AVE",300,"Robbery Firearm",-75.19275009,39.96626609,39.96626609,-75.19275009,"2008","Y"
"23",948,"18","E",2008-10-11 04:30:00,2008-10-11,00:30:00,0,200818073461,"S 44TH ST  /  LOCUST ST",400,"Aggravated Assault Firearm",-75.21029444,39.95390519,39.95390519,-75.21029444,"2008","Y"
"24",925,"15","O",2008-11-26 23:01:00,2008-11-26,18:01:00,18,200815133527,"7500 BLOCK EDMUND ST",300,"Robbery Firearm",-75.02970844,40.03095623,40.03095623,-75.02970844,"2008","Y"
"25",929,"16","D",2008-10-23 23:20:00,2008-10-23,19:20:00,19,200816060557,"S 40TH ST  /  MARKET ST",400,"Aggravated Assault Firearm",-75.20195644,39.95715846,39.95715846,-75.20195644,"2008","Y"
"26",862,"08","M",2008-10-01 10:39:00,2008-10-01,06:39:00,6,200808048222,"8900 BLOCK DEWEES ST",300,"Robbery Firearm",-75.03085002,40.06695023,40.06695023,-75.03085002,"2008","Y"
"27",866,"22","B",2008-10-18 23:53:00,2008-10-18,19:53:00,19,200822074464,"1000 BLOCK W YORK ST",400,"Aggravated Assault Firearm",-75.15024069,39.988694,39.988694,-75.15024069,"2008","Y"
"28",869,"26","K",2008-11-05 17:25:00,2008-11-05,12:25:00,12,200826072259,"100 BLOCK W HUNTINGDON ST",400,"Aggravated Assault Firearm",-75.13229489,39.98943829,39.98943829,-75.13229489,"2008","Y"
"29",873,"12","F",2008-11-18 13:36:00,2008-11-18,08:36:00,8,200812100795,"7200 BLOCK PASCHALL AVE",300,"Robbery Firearm",-75.24382355,39.91694918,39.91694918,-75.24382355,"2008","Y"
"30",874,"25","S",2008-12-01 11:10:00,2008-12-01,06:10:00,6,200825132905,"3300 BLOCK MUTTER ST",400,"Aggravated Assault Firearm",-75.13115096,40.00151512,40.00151512,-75.13115096,"2008","Y"
"31",880,"35","H",2008-09-04 13:53:00,2008-09-04,09:53:00,9,200835083728,"4800 BLOCK N BROAD ST",300,"Robbery Firearm",-75.1472214,40.02765322,40.02765322,-75.1472214,"2008","Y"
"32",789,"22","S",2008-09-28 21:10:00,2008-09-28,17:10:00,17,200822069901,"2500 BLOCK N JESSUP ST",300,"Robbery Firearm",-75.15048109,39.99025612,39.99025612,-75.15048109,"2008","Y"
"33",792,"25","P",2008-12-09 16:00:00,2008-12-09,11:00:00,11,200825135997,"W ERIE AV  /  N MARVINE ST",300,"Robbery Firearm",-75.14666911,40.00866292,40.00866292,-75.14666911,"2008","Y"
"34",804,"03","D",2008-07-08 18:20:00,2008-07-08,14:20:00,14,200803025365,"400 BLOCK CHRISTIAN ST",400,"Aggravated Assault Firearm",-75.15023088,39.93693036,39.93693036,-75.15023088,"2008","Y"
"35",827,"01","E",2008-06-13 08:37:00,2008-06-13,04:37:00,4,200801020770,"2600 BLOCK S 18TH ST",400,"Aggravated Assault Firearm",-75.17770887,39.91771026,39.91771026,-75.17770887,"2008","Y"
"36",1145,"05","F",2008-06-24 03:56:00,2008-06-23,23:56:00,23,200805016104,"100 BLOCK LEVERING ST",300,"Robbery Firearm",-75.22468008,40.02588674,40.02588674,-75.22468008,"2008","Y"
"37",1167,"06","N",2008-08-07 05:38:00,2008-08-07,01:38:00,1,200806045344,"300 BLOCK N 13TH ST",300,"Robbery Firearm",-75.16011116,39.95829808,39.95829808,-75.16011116,"2008","Y"
"38",1182,"02","O",2008-06-10 02:49:00,2008-06-09,22:49:00,22,200802038951,"500 BLOCK E CHELTENHAM AVE",400,"Aggravated Assault Firearm",-75.10433532,40.04290912,40.04290912,-75.10433532,"2008","Y"
"39",978,"25","F",2008-10-14 13:10:00,2008-10-14,09:10:00,9,200825114582,"4700 BLOCK RISING SUN AVE",300,"Robbery Firearm",-75.12606359,40.02175958,40.02175958,-75.12606359,"2008","Y"
"40",980,"24","D",2008-12-21 21:01:00,2008-12-21,16:01:00,16,200824109657,"3000 BLOCK CEDAR ST",300,"Robbery Firearm",-75.11122318,39.98527727,39.98527727,-75.11122318,"2008","Y"
"41",1013,"22","F",2008-07-19 19:05:00,2008-07-19,15:05:00,15,200822051752,"1800 BLOCK N VAN PELT ST",300,"Robbery Firearm",-75.1694321,39.98330143,39.98330143,-75.1694321,"2008","Y"
"42",1034,"02","B",2008-12-27 09:54:00,2008-12-27,04:54:00,4,200802085341,"2400 BLOCK RHAWN ST",300,"Robbery Firearm",-75.04780721,40.05725678,40.05725678,-75.04780721,"2008","Y"
"43",1070,"39","V",2008-09-24 00:17:00,2008-09-23,20:17:00,20,200839069251,"200 BLOCK W CHELTEN AVE",300,"Robbery Firearm",-75.17782002,40.03111968,40.03111968,-75.17782002,"2008","Y"
"44",1073,"17","M",2008-10-03 06:38:00,2008-10-03,02:38:00,2,200817049331,"800 BLOCK S 24TH ST",300,"Robbery Firearm",-75.18248055,39.94283635,39.94283635,-75.18248055,"2008","Y"
"45",1209,"18","Q",2008-06-28 16:43:00,2008-06-28,12:43:00,12,200818045678,"700 BLOCK S 55TH ST",300,"Robbery Firearm",-75.23311546,39.94971371,39.94971371,-75.23311546,"2008","Y"
"46",1215,"39","E",2008-08-30 01:41:00,2008-08-29,21:41:00,21,200839062694,"N BROAD ST  /  W HUNTING PARK AV",300,"Robbery Firearm",-75.14958864,40.0169417,40.0169417,-75.14958864,"2008","Y"
"47",1598,"18","T",2008-09-02 09:08:00,2008-09-02,05:08:00,5,200818063461,"S 48TH ST  /  BALTIMORE AV",300,"Robbery Firearm",-75.21923756,39.94837727,39.94837727,-75.21923756,"2008","Y"
"48",1402,"15","K",2008-11-30 00:05:00,2008-11-29,19:05:00,19,200815134492,"5400 BLOCK DISCHER ST",300,"Robbery Firearm",-75.08126492,40.0282004,40.0282004,-75.08126492,"2008","Y"
"49",1485,"18","D",2008-07-26 06:50:00,2008-07-26,02:50:00,2,200818053502,"S 40TH ST  /  WALNUT ST",400,"Aggravated Assault Firearm",-75.20259225,39.95412178,39.95412178,-75.20259225,"2008","Y"
"50",1661,"22","L",2008-12-01 22:38:00,2008-12-01,17:38:00,17,200822083776,"N 27TH ST  /  RIDGE AV",300,"Robbery Firearm",-75.17812028,39.98477837,39.98477837,-75.17812028,"2008","Y"
"51",1665,"14","Q",2008-12-28 03:23:00,2008-12-27,22:23:00,22,200814104355,"1500 BLOCK VERNON RD",300,"Robbery Firearm",-75.16552369,40.0748642,40.0748642,-75.16552369,"2008","Y"
"52",1674,"15","F",2008-10-23 03:40:00,2008-10-22,23:40:00,23,200815121024,"1600 BLOCK KINSEY ST",300,"Robbery Firearm",-75.08582157,40.01445728,40.01445728,-75.08582157,"2008","Y"
"53",1732,"15","G",2008-06-11 02:45:00,2008-06-10,22:45:00,22,200815066047,"5100 BLOCK HORROCKS ST",400,"Aggravated Assault Firearm",-75.08483088,40.02535123,40.02535123,-75.08483088,"2008","Y"
"54",1747,"26","I",2008-08-30 15:05:00,2008-08-30,11:05:00,11,200826057428,"1700 BLOCK N 04TH ST",400,"Aggravated Assault Firearm",-75.14166884,39.97663582,39.97663582,-75.14166884,"2008","Y"
"55",1690,"18","H",2008-11-01 00:23:00,2008-10-31,20:23:00,20,200818078336,"4600 BLOCK LUDLOW ST",300,"Robbery Firearm",-75.21318223,39.9577607,39.9577607,-75.21318223,"2008","Y"
"56",1705,"15","D",2008-07-30 02:36:00,2008-07-29,22:36:00,22,200815086869,"4300 BLOCK ELIZABETH ST",400,"Aggravated Assault Firearm",-75.09213003,40.01300809,40.01300809,-75.09213003,"2008","Y"
"57",1619,"04","F",2008-08-31 03:50:00,2008-08-30,23:50:00,23,200804040499,"600 BLOCK WOLF ST",400,"Aggravated Assault Firearm",-75.15771546,39.92028392,39.92028392,-75.15771546,"2008","Y"
"58",1627,"18","U",2008-09-24 23:47:00,2008-09-24,19:47:00,19,200818069278,"S 61ST ST  /  ELLSWORTH ST",300,"Robbery Firearm",-75.24583939,39.94739313,39.94739313,-75.24583939,"2008","Y"
"59",1953,"03","P",2008-12-29 07:48:00,2008-12-29,02:48:00,2,200803047033,"600 BLOCK TASKER ST",300,"Robbery Firearm",-75.15527699,39.92877234,39.92877234,-75.15527699,"2008","Y"
"60",1996,"25","K",2008-11-02 22:48:00,2008-11-02,17:48:00,17,200825122308,"3500 BLOCK N 07TH ST",400,"Aggravated Assault Firearm",-75.14116332,40.00479376,40.00479376,-75.14116332,"2008","Y"
"61",1845,"22","H",2008-12-25 05:22:00,2008-12-25,00:22:00,0,200822088690,"N UBER ST  /  W SUSQUEHANNA AVE",400,"Aggravated Assault Firearm",-75.16497899,39.98743033,39.98743033,-75.16497899,"2008","Y"
"62",1850,"39","R",2008-06-28 13:12:00,2008-06-28,09:12:00,9,200839044709,"2700 BLOCK N 23RD ST",400,"Aggravated Assault Firearm",-75.16917892,39.99583639,39.99583639,-75.16917892,"2008","Y"
"63",2159,"12","L",2008-12-30 05:27:00,2008-12-30,00:27:00,0,200812112621,"5800 BLOCK WILLOWS ST",300,"Robbery Firearm",-75.23363495,39.9403011,39.9403011,-75.23363495,"2008","Y"
"64",2367,"19","D",2008-12-02 05:56:00,2008-12-02,00:56:00,0,200819097750,"N 54TH ST  /  CITY AVE",400,"Aggravated Assault Firearm",-75.23528792,39.99709737,39.99709737,-75.23528792,"2008","Y"
"65",2417,"35","H",2008-10-23 07:16:00,2008-10-23,03:16:00,3,200835099294,"4700 BLOCK N 12TH ST",300,"Robbery Firearm",-75.14378475,40.02567106,40.02567106,-75.14378475,"2008","Y"
"66",2325,"06","O",2008-08-17 06:51:00,2008-08-17,02:51:00,2,200806047466,"700 BLOCK N FRONT ST",300,"Robbery Firearm",-75.13859704,39.96129921,39.96129921,-75.13859704,"2008","Y"
"67",2331,"04","F",2008-09-12 22:26:00,2008-09-12,18:26:00,18,200804042740,"S 08TH ST  /  JACKSON ST",300,"Robbery Firearm",-75.16000001,39.92186532,39.92186532,-75.16000001,"2008","Y"
"68",2504,"24","G",2008-10-19 04:23:00,2008-10-19,00:23:00,0,200824091843,"2100 BLOCK E WESTMORELAND ST",300,"Robbery Firearm",-75.10727263,39.99361944,39.99361944,-75.10727263,"2008","Y"
"69",2453,"35","G",2008-11-18 04:25:00,2008-11-17,23:25:00,23,200835107253,"4500 BLOCK N MOLE ST",400,"Aggravated Assault Firearm",-75.15123923,40.02183393,40.02183393,-75.15123923,"2008","Y"
"70",2809,"16","E",2008-10-24 09:40:00,2008-10-24,05:40:00,5,200816060664,"N 38TH ST  /  LANCASTER AV",400,"Aggravated Assault Firearm",-75.1968138,39.96022232,39.96022232,-75.1968138,"2008","Y"
"71",2811,"14","Z",2008-12-01 16:43:00,2008-12-01,11:43:00,11,200814097544,"700 BLOCK CHURCH LN",400,"Aggravated Assault Firearm",-75.16167914,40.04295636,40.04295636,-75.16167914,"2008","Y"
"72",2701,"23","A",2008-08-24 06:42:00,2008-08-24,02:42:00,2,200823039930,"N BROAD ST  /  W THOMPSON ST",300,"Robbery Firearm",-75.15905948,39.9732142,39.9732142,-75.15905948,"2008","Y"
"73",2725,"04","H",2008-08-05 01:56:00,2008-08-04,21:56:00,21,200804035608,"S 07TH ST  /  SHUNK ST",300,"Robbery Firearm",-75.15955291,39.91668073,39.91668073,-75.15955292,"2008","Y"
"74",2743,"16","Q",2008-12-12 00:15:00,2008-12-11,19:15:00,19,200816070345,"4600 BLOCK WYALUSING AVE",300,"Robbery Firearm",-75.21499196,39.97096413,39.97096413,-75.21499196,"2008","Y"
"75",2752,"17","B",2008-12-17 02:44:00,2008-12-16,21:44:00,21,200817060963,"1400 BLOCK S 21ST ST",400,"Aggravated Assault Firearm",-75.17930595,39.93440418,39.93440417,-75.17930595,"2008","Y"
"76",2902,"22","R",2008-06-08 07:27:00,2008-06-08,03:27:00,3,200822040765,"N 31ST ST  /  W CUMBERLAND ST",400,"Aggravated Assault Firearm",-75.18246581,39.99437463,39.99437463,-75.18246581,"2008","Y"
"77",2903,"26","R",2008-06-15 07:33:00,2008-06-15,03:33:00,3,200826038278,"900 BLOCK W YORK ST",300,"Robbery Firearm",-75.14709536,39.98828806,39.98828806,-75.14709536,"2008","Y"
"78",2904,"24","O",2008-07-19 10:04:00,2008-07-19,06:04:00,6,200824062009,"900 BLOCK E SCHILLER ST",400,"Aggravated Assault Firearm",-75.1124,40.00052932,40.00052932,-75.1124,"2008","Y"
"79",3026,"26","R",2008-11-09 04:11:00,2008-11-08,23:11:00,23,200826073284,"900 BLOCK W YORK ST",300,"Robbery Firearm",-75.14709536,39.98828806,39.98828806,-75.14709536,"2008","Y"
"80",3030,"17","J",2008-10-11 01:50:00,2008-10-10,21:50:00,21,200817050543,"2100 BLOCK FEDERAL ST",300,"Robbery Firearm",-75.17861771,39.93760039,39.93760039,-75.17861771,"2008","Y"
"81",2987,"15","P",2008-12-12 07:20:00,2008-12-12,02:20:00,2,200815138957,"7300 BLOCK ERDRICK ST",300,"Robbery Firearm",-75.03872255,40.0358004,40.0358004,-75.03872255,"2008","Y"
"82",3192,"26","G",2008-11-08 01:02:00,2008-11-07,20:02:00,20,200826072908,"900 BLOCK LEIGHTGOW",300,"Robbery Firearm",-75.1445881,39.96595355,39.96595355,-75.1445881,"2008","Y"
"83",3199,"26","F",2008-11-10 01:12:00,2008-11-09,20:12:00,20,200826073466,"KENSINGTON AV  /  E HAZZARD ST",300,"Robbery Firearm",-75.12794625,39.98848532,39.98848532,-75.12794624,"2008","Y"
"84",3218,"35","G",2008-09-13 10:54:00,2008-09-13,06:54:00,6,200835086691,"W WYOMING AV  /  BELFIELD AV",300,"Robbery Firearm",-75.14998701,40.02539993,40.02539993,-75.14998701,"2008","Y"
"85",3219,"18","F",2008-06-22 05:38:00,2008-06-22,01:38:00,1,200818043896,"4700 BLOCK PINE ST",300,"Robbery Firearm",-75.21635189,39.95231182,39.95231182,-75.21635189,"2008","Y"
"86",3222,"15","K",2008-08-10 13:27:00,2008-08-10,09:27:00,9,200815091764,"5300 BLOCK OXFORD AVE",300,"Robbery Firearm",-75.08537775,40.02856418,40.02856418,-75.08537775,"2008","Y"
"87",3232,"17","A",2008-10-23 01:20:00,2008-10-22,21:20:00,21,200817052490,"1500 BLOCK REED ST",400,"Aggravated Assault Firearm",-75.16951721,39.93315361,39.93315361,-75.16951721,"2008","Y"
"88",3248,"19","J",2008-10-05 02:18:00,2008-10-04,22:18:00,22,200819081568,"N 59TH ST  /  MEDIA ST",400,"Aggravated Assault Firearm",-75.23827988,39.97456238,39.97456238,-75.23827988,"2008","Y"
"89",3102,"35","I",2008-07-02 03:49:00,2008-07-01,23:49:00,23,200835061306,"BELFIELD AV  /  OGONTZ AVE",300,"Robbery Firearm",-75.15328514,40.02996451,40.02996451,-75.15328514,"2008","Y"
"90",3133,"35","J",2008-12-22 03:20:00,2008-12-21,22:20:00,22,200835117102,"15TH & RUSCOMB",300,"Robbery Firearm",-75.14864446,40.02936567,40.02936567,-75.14864446,"2008","Y"
"91",6015,"12","G",2008-12-06 21:50:00,2008-12-06,16:50:00,16,200812105897,"S 68TH ST  /  WOODLAND AV",300,"Robbery Firearm",-75.23840242,39.92271257,39.92271257,-75.23840242,"2008","Y"
"92",6020,"26","B",2008-10-18 17:52:00,2008-10-18,13:52:00,13,200826068491,"ARAMINGO AV  /  E CUMBERLAND ST",300,"Robbery Firearm",-75.11976605,39.97637843,39.97637843,-75.11976605,"2008","Y"
"93",6673,"12","D",2008-10-19 00:41:00,2008-10-18,20:41:00,20,200812092621,"S 80TH ST  /  LINDBERGH BLVD",300,"Robbery Firearm",-75.24746172,39.90237144,39.90237144,-75.24746172,"2008","Y"
"94",6674,"26","A",2008-06-15 05:28:00,2008-06-15,01:28:00,1,200826038271,"800 BLOCK E GIRARD AVE",400,"Aggravated Assault Firearm",-75.12415518,39.97193883,39.97193883,-75.12415518,"2008","Y"
"95",6684,"01","B",2008-07-19 04:49:00,2008-07-19,00:49:00,0,200801025719,"2000 BLOCK SNYDER AVE",400,"Aggravated Assault Firearm",-75.18039978,39.92576744,39.92576744,-75.18039978,"2008","Y"
"96",6389,"25","P",2008-08-11 14:59:00,2008-08-11,10:59:00,10,200825087315,"3700 BLOCK GERMANTOWN AVE",300,"Robbery Firearm",-75.1508127,40.0092058,40.0092058,-75.1508127,"2008","Y"
"97",6400,"09","K",2008-12-10 21:15:00,2008-12-10,16:15:00,16,200809063681,"N 15TH ST  /  FAIRMOUNT AV",300,"Robbery Firearm",-75.1621269,39.96709561,39.96709561,-75.1621269,"2008","Y"
"98",5371,"04","M",2008-12-19 01:45:00,2008-12-18,20:45:00,20,200804058017,"1000 BLOCK SNYDER AVE",300,"Robbery Firearm",-75.16278046,39.92394577,39.92394577,-75.16278046,"2008","Y"
"99",6688,"26","B",2008-12-26 13:13:00,2008-12-26,08:13:00,8,200826083194,"2400 BLOCK ARAMINGO AVE",300,"Robbery Firearm",-75.11976605,39.97637843,39.97637843,-75.11976605,"2008","Y"
"100",6690,"25","F",2008-09-14 10:00:00,2008-09-14,06:00:00,6,200825101542,"100 BLOCK E ROCKLAND ST",300,"Robbery Firearm",-75.12369178,40.02462576,40.02462576,-75.12369178,"2008","Y"
"101",6691,"35","S",2008-08-25 01:00:00,2008-08-24,21:00:00,21,200835080187,"1200 BLOCK LINDLEY AVE",400,"Aggravated Assault Firearm",-75.14360208,40.03014684,40.03014684,-75.14360208,"2008","Y"
"102",6692,"35","S",2008-08-25 03:19:00,2008-08-24,23:19:00,23,200835080213,"1200 BLOCK LINDLEY AVE",400,"Aggravated Assault Firearm",-75.14360208,40.03014684,40.03014684,-75.14360208,"2008","Y"
"103",6704,"12","K",2008-09-19 06:02:00,2008-09-19,02:02:00,2,200812083661,"S 54TH ST  /  LINDBERGH BLVD",300,"Robbery Firearm",-75.21557141,39.93349875,39.93349875,-75.21557141,"2008","Y"
"104",5420,"02","O",2008-11-30 17:18:00,2008-11-30,12:18:00,12,200802079405,"5900 BLOCK RISING SUN AVE",300,"Robbery Firearm",-75.10267162,40.04400339,40.04400338,-75.10267162,"2008","Y"
"105",5662,"17","F",2008-08-04 05:34:00,2008-08-04,01:34:00,1,200817038887,"1800 BLOCK CARPENTER ST",400,"Aggravated Assault Firearm",-75.17346933,39.93993789,39.93993789,-75.17346933,"2008","Y"
"106",6716,"06","F",2008-09-27 13:51:00,2008-09-27,09:51:00,9,200806055547,"200 BLOCK S BROAD ST",300,"Robbery Firearm",-75.16382593,39.94871374,39.94871374,-75.16382593,"2008","Y"
"107",6722,"14","Y",2008-12-18 06:17:00,2008-12-18,01:17:00,1,200814101882,"6500 BLOCK N BEECHWOOD ST",300,"Robbery Firearm",-75.15648916,40.05452915,40.05452915,-75.15648916,"2008","Y"
"108",6725,"12","R",2008-10-03 22:41:00,2008-10-03,18:41:00,18,200812088159,"S 81ST ST  /  LYONS AVE",400,"Aggravated Assault Firearm",-75.24568362,39.89951281,39.89951281,-75.24568362,"2008","Y"
"109",6737,"06","P",2008-12-04 14:29:00,2008-12-04,09:29:00,9,200806068197,"800 BLOCK N 11TH ST",400,"Aggravated Assault Firearm",-75.15504769,39.9666912,39.9666912,-75.15504769,"2008","Y"
"110",6490,"25","P",2008-10-07 01:32:00,2008-10-06,21:32:00,21,200825111387,"4200 BLOCK N BROAD ST",300,"Robbery Firearm",-75.14934928,40.01796692,40.01796692,-75.14934928,"2008","Y"
"111",5713,"23","A",2008-11-14 13:37:00,2008-11-14,08:37:00,8,200823052834,"1300 BLOCK N 11TH ST",400,"Aggravated Assault Firearm",-75.15376519,39.97253378,39.97253378,-75.15376519,"2008","Y"
"112",6168,"14","K",2008-10-27 17:57:00,2008-10-27,13:57:00,13,200814089001,"CHEW AV  /  E TULPEHOCKEN ST",300,"Robbery Firearm",-75.17171901,40.04972457,40.04972457,-75.17171901,"2008","Y"
"113",6175,"26","T",2008-11-30 06:41:00,2008-11-30,01:41:00,1,200826077653,"100 BLOCK W SUSQUEHANNA",400,"Aggravated Assault Firearm",-75.1325477,39.983176,39.983176,-75.1325477,"2008","Y"
"114",6515,"15","P",2008-11-15 02:06:00,2008-11-14,21:06:00,21,200815129377,"4100 BLOCK DECATUR ST",300,"Robbery Firearm",-75.02956537,40.04006726,40.04006726,-75.02956537,"2008","Y"
"115",5750,"19","L",2008-11-24 18:01:00,2008-11-24,13:01:00,13,200819095868,"0 BLOCK N 61ST ST",300,"Robbery Firearm",-75.24273761,39.96221196,39.96221196,-75.24273761,"2008","Y"
"116",6197,"19","X",2008-06-08 01:34:00,2008-06-07,21:34:00,21,200819041227,"300 BLOCK N 55TH ST",400,"Aggravated Assault Firearm",-75.22977241,39.96613722,39.96613722,-75.22977241,"2008","Y"
"117",6540,"12","H",2008-10-18 05:24:00,2008-10-18,01:24:00,1,200812092436,"S 65TH ST  /  LINDBERGH BLVD",300,"Robbery Firearm",-75.22589622,39.91850893,39.91850893,-75.22589622,"2008","Y"
"118",6549,"09","D",2008-09-11 19:49:00,2008-09-11,15:49:00,15,200809048143,"200 BLOCK S BROAD ST",300,"Robbery Firearm",-75.16458158,39.94822509,39.94822509,-75.16458158,"2008","Y"
"119",6559,"17","A",2008-08-28 03:51:00,2008-08-27,23:51:00,23,200817043198,"1600 BLOCK MOORE ST",300,"Robbery Firearm",-75.17270177,39.92852941,39.92852941,-75.17270177,"2008","Y"
"120",5543,"12","O",2008-10-19 11:09:00,2008-10-19,07:09:00,7,200812092720,"S 54TH ST  /  WILLOWS AV",300,"Robbery Firearm",-75.22818687,39.94414329,39.94414329,-75.22818687,"2008","Y"
"121",5551,"15","O",2008-11-13 04:49:00,2008-11-12,23:49:00,23,200815128612,"4700 BLOCK HARTEL AVE",300,"Robbery Firearm",-75.0274205,40.03413937,40.03413937,-75.0274205,"2008","Y"
"122",5561,"12","J",2008-07-31 08:14:00,2008-07-31,04:14:00,4,200812067489,"S 62ND ST  /  WOODLAND AV",300,"Robbery Firearm",-75.23065718,39.92816716,39.92816715,-75.23065718,"2008","Y"
"123",5822,"09","D",2008-10-05 08:37:00,2008-10-05,04:37:00,4,200809052301,"S 16TH ST  /  SANSOM ST",300,"Robbery Firearm",-75.16735607,39.95051893,39.95051892,-75.16735607,"2008","Y"
"124",5045,"22","M",2008-12-10 13:56:00,2008-12-10,08:56:00,8,200822085647,"N 27TH ST  /  W DAUPHIN ST",300,"Robbery Firearm",-75.17686852,39.99059097,39.99059097,-75.17686852,"2008","Y"
"125",5050,"35","B",2008-07-24 01:29:00,2008-07-23,21:29:00,21,200835068907,"5800 BLOCK HOPE ST",300,"Robbery Firearm",-75.1216434,40.03848969,40.03848969,-75.1216434,"2008","Y"
"126",5854,"14","R",2008-07-02 15:48:00,2008-07-02,11:48:00,11,200814055276,"1000 BLOCK E MOUNT AIRY AVE",300,"Robbery Firearm",-75.17945038,40.07127052,40.07127052,-75.17945038,"2008","Y"
"127",5066,"18","L",2008-06-20 00:22:00,2008-06-19,20:22:00,20,200818043199,"5200 BLOCK BALTIMORE AVE",400,"Aggravated Assault Firearm",-75.22945138,39.9477889,39.9477889,-75.22945138,"2008","Y"
"128",5075,"12","K",2008-07-30 06:46:00,2008-07-30,02:46:00,2,200812067173,"S 56TH ST  /  ELMWOOD AV",300,"Robbery Firearm",-75.21773371,39.93108388,39.93108388,-75.21773371,"2008","Y"
"129",6354,"15","D",2008-09-11 18:37:00,2008-09-11,14:37:00,14,200815104723,"4300 BLOCK E WINGOHOCKING ST",300,"Robbery Firearm",-75.09228201,40.01530398,40.01530398,-75.09228201,"2008","Y"
"130",5238,"09","D",2008-10-27 14:05:00,2008-10-27,10:05:00,10,200809055982,"1500 BLOCK SPRUCE ST",300,"Robbery Firearm",-75.16636515,39.94764284,39.94764284,-75.16636515,"2008","Y"
"131",5091,"23","A",2008-06-11 23:14:00,2008-06-11,19:14:00,19,200823027486,"1300 BLOCK W GIRARD AVE",300,"Robbery Firearm",-75.15861341,39.97135706,39.97135706,-75.15861341,"2008","Y"
"132",5103,"17","F",2008-12-27 16:19:00,2008-12-27,11:19:00,11,200817062595,"1700 BLOCK ANNIN ST",400,"Aggravated Assault Firearm",-75.17191802,39.93695204,39.93695204,-75.17191802,"2008","Y"
"133",6355,"35","G",2008-11-29 02:43:00,2008-11-28,21:43:00,21,200835110366,"N 15TH ST  /  BELFIELD AV",300,"Robbery Firearm",-75.14955553,40.02479421,40.02479421,-75.14955552,"2008","Y"
"134",5956,"18","G",2008-11-15 02:18:00,2008-11-14,21:18:00,21,200818081704,"S 47TH ST  /  WOODLAND AV",300,"Robbery Firearm",-75.21085629,39.94335619,39.94335619,-75.21085629,"2008","Y"
"135",5331,"25","R",2008-12-06 00:57:00,2008-12-05,19:57:00,19,200825134827,"W ERIE AV  /  N MARSHALL ST",300,"Robbery Firearm",-75.13965487,40.00776427,40.00776427,-75.13965487,"2008","Y"
"136",4586,"14","R",2008-06-09 02:58:00,2008-06-08,22:58:00,22,200814047685,"MT AIRY /  STENTON",400,"Aggravated Assault Firearm",-75.18175354,40.06891206,40.06891206,-75.18175354,"2008","Y"
"137",4588,"14","R",2008-07-30 12:56:00,2008-07-30,08:56:00,8,200814063951,"STENTON AV  /  E MOUNT AIRY AV",400,"Aggravated Assault Firearm",-75.18175354,40.06891206,40.06891206,-75.18175354,"2008","Y"
"138",3965,"18","T",2008-06-20 06:17:00,2008-06-20,02:17:00,2,200818043320,"S 48TH ST  /  BALTIMORE AVE",300,"Robbery Firearm",-75.21923756,39.94837727,39.94837727,-75.21923756,"2008","Y"
"139",3843,"15","O",2008-08-26 04:00:00,2008-08-26,00:00:00,0,200815098301,"7600 BLOCK TORRESDALE AVE",400,"Aggravated Assault Firearm",-75.02914911,40.03324082,40.03324082,-75.02914911,"2008","Y"
"140",3847,"14","G",2008-09-01 14:23:00,2008-09-01,10:23:00,10,200814073870,"GREENE ST  /  W WALNUT LA",300,"Robbery Firearm",-75.18179824,40.0374394,40.0374394,-75.18179824,"2008","Y"
"141",4032,"25","P",2008-07-13 01:31:00,2008-07-12,21:31:00,21,200825074781,"4000 BLOCK OLD YORK RD",300,"Robbery Firearm",-75.14723062,40.01408948,40.01408948,-75.14723062,"2008","Y"
"142",4653,"15","J",2008-07-02 01:21:00,2008-07-01,21:21:00,21,200815075310,"5200 BLOCK TORRESDALE AVE",300,"Robbery Firearm",-75.069135,40.01348127,40.01348127,-75.069135,"2008","Y"
"143",4656,"26","K",2008-09-11 01:33:00,2008-09-10,21:33:00,21,200826060207,"HOWARD & DAUPHIN ST",400,"Aggravated Assault Firearm",-75.13324921,39.98496002,39.98496002,-75.13324921,"2008","Y"
"144",4659,"15","G",2008-09-01 00:24:00,2008-08-31,20:24:00,20,200815100609,"5100 BLOCK AKRON ST",400,"Aggravated Assault Firearm",-75.08317545,40.0234577,40.02345769,-75.08317545,"2008","Y"
"145",4670,"18","D",2008-09-09 02:55:00,2008-09-08,22:55:00,22,200818065219,"S 43RD ST  /  MARKET",300,"Robbery Firearm",-75.20813052,39.95792487,39.95792487,-75.20813052,"2008","Y"
"146",4911,"22","B",2008-11-11 06:52:00,2008-11-11,01:52:00,1,200822079381,"W DAUPHIN ST  /  N WATTS ST",300,"Robbery Firearm",-75.15506274,39.98777477,39.98777477,-75.15506274,"2008","Y"
"147",4912,"12","G",2008-08-09 01:05:00,2008-08-08,21:05:00,21,200812070295,"6700 BLOCK REGENT ST",400,"Aggravated Assault Firearm",-75.24017873,39.92657632,39.92657632,-75.24017873,"2008","Y"
"148",4913,"06","F",2008-11-16 07:14:00,2008-11-16,02:14:00,2,200806065049,"200 BLOCK S CAMAC ST",300,"Robbery Firearm",-75.16133148,39.94898797,39.94898797,-75.16133148,"2008","Y"
"149",3875,"24","O",2008-09-26 13:25:00,2008-09-26,09:25:00,9,200824084583,"1300 BLOCK E CAREY ST",300,"Robbery Firearm",-75.10353132,40.00443973,40.00443973,-75.10353132,"2008","Y"
"150",4689,"19","H",2008-09-10 05:31:00,2008-09-10,01:31:00,1,200819073507,"1600 BLOCK N 62ND ST",400,"Aggravated Assault Firearm",-75.24358216,39.97555582,39.97555582,-75.24358216,"2008","Y"
"151",4078,"25","J",2008-06-07 04:40:00,2008-06-07,00:40:00,0,200825059936,"N FRANKLIN ST  /  W INDIANA AV",400,"Aggravated Assault Firearm",-75.14346728,39.99721974,39.99721974,-75.14346728,"2008","Y"
"152",4080,"35","S",2008-09-29 18:04:00,2008-09-29,14:04:00,14,200835092016,"N BROAD ST  /  WAGNER AVE",300,"Robbery Firearm",-75.14652163,40.03087478,40.03087477,-75.14652163,"2008","Y"
"153",4703,"17","E",2008-08-21 18:22:00,2008-08-21,14:22:00,14,200817042035,"1900 BLOCK TITAN ST",300,"Robbery Firearm",-75.17544016,39.93566079,39.93566079,-75.17544016,"2008","Y"
"154",4719,"22","C",2008-12-07 00:58:00,2008-12-06,19:58:00,19,200822085005,"1800 BLOCK N 17TH ST",300,"Robbery Firearm",-75.16236186,39.98084621,39.98084621,-75.16236186,"2008","Y"
"155",4932,"02","N",2008-06-20 21:22:00,2008-06-20,17:22:00,17,200802042039,"6000 BLOCK OXFORD AVE",300,"Robbery Firearm",-75.08940576,40.03727305,40.03727305,-75.08940576,"2008","Y"
"156",4999,"26","J",2008-06-01 13:09:00,2008-06-01,09:09:00,9,200826034835,"100 BLOCK DIAMOND ST",400,"Aggravated Assault Firearm",-75.13341257,39.98170744,39.98170744,-75.13341257,"2008","Y"
"157",3297,"07","J",2008-10-26 00:46:00,2008-10-25,20:46:00,20,200807041941,"13000 BLOCK BUSTLETON AVE",300,"Robbery Firearm",-75.0150154,40.12443005,40.12443005,-75.0150154,"2008","Y"
"158",4156,"12","E",2008-08-10 13:27:00,2008-08-10,09:27:00,9,200812070814,"ELMWOOD AV  /  LLOYD ST",300,"Robbery Firearm",-75.24120942,39.91455885,39.91455885,-75.24120942,"2008","Y"
"159",4166,"17","A",2008-08-14 02:13:00,2008-08-13,22:13:00,22,200817040663,"1600 BLOCK MOORE ST",300,"Robbery Firearm",-75.17270177,39.92852941,39.92852941,-75.17270177,"2008","Y"
"160",4174,"26","R",2008-09-06 04:59:00,2008-09-06,00:59:00,0,200826059105,"800 BLOCK W DAUPHIN ST",300,"Robbery Firearm",-75.14643684,39.98666313,39.98666313,-75.14643684,"2008","Y"
"161",3570,"15","K",2008-06-20 16:50:00,2008-06-20,12:50:00,12,200815070314,"E CHELTENHAM AV  /  N PENN ST",300,"Robbery Firearm",-75.07677595,40.0273908,40.0273908,-75.07677595,"2008","Y"
"162",3337,"23","H",2008-09-28 03:48:00,2008-09-27,23:48:00,23,200823045353,"RIDGE AV  /  JEFFERSON ST",300,"Robbery Firearm",-75.16938484,39.97726727,39.97726727,-75.16938484,"2008","Y"
"163",3338,"23","M",2008-06-15 22:01:00,2008-06-15,18:01:00,18,200823028217,"N 27TH ST  /  CECIL B MOORE AV",300,"Robbery Firearm",-75.17886392,39.98140257,39.98140257,-75.17886392,"2008","Y"
"164",4187,"25","K",2008-06-30 00:18:00,2008-06-29,20:18:00,20,200825069489,"3500 BLOCK N 05TH ST",400,"Aggravated Assault Firearm",-75.13721115,40.00581604,40.00581604,-75.13721115,"2008","Y"
"165",4190,"01","A",2008-07-07 02:21:00,2008-07-06,22:21:00,22,200801024058,"1800 BLOCK S 15TH ST",400,"Aggravated Assault Firearm",-75.17059541,39.92827489,39.92827489,-75.17059541,"2008","Y"
"166",3358,"23","E",2008-08-10 03:59:00,2008-08-09,23:59:00,23,200823037565,"1700 BLOCK W THOMPSON ST",300,"Robbery Firearm",-75.16389386,39.97384289,39.97384289,-75.16389386,"2008","Y"
"167",3359,"35","G",2008-10-03 17:17:00,2008-10-03,13:17:00,13,200835093196,"OLD YORK RD  /  BELFIELD AV",300,"Robbery Firearm",-75.14711356,40.02128954,40.02128954,-75.14711356,"2008","Y"
"168",4210,"23","F",2008-06-19 02:48:00,2008-06-18,22:48:00,22,200823028696,"N 16TH ST  /  MASTER ST",400,"Aggravated Assault Firearm",-75.16203886,39.97490914,39.97490914,-75.16203886,"2008","Y"
"169",4411,"17","B",2008-09-14 07:04:00,2008-09-14,03:04:00,3,200817046338,"S 24TH ST  /  REED ST",400,"Aggravated Assault Firearm",-75.18418699,39.93504327,39.93504327,-75.18418699,"2008","Y"
"170",4413,"12","M",2008-07-31 01:24:00,2008-07-30,21:24:00,21,200812067407,"S 53RD ST  /  WOODLAND AV",400,"Aggravated Assault Firearm",-75.21761698,39.93733908,39.93733908,-75.21761698,"2008","Y"
"171",4418,"23","K",2008-11-29 01:27:00,2008-11-28,20:27:00,20,200823055056,"N CROSKEY ST  /  CECIL B MOORE AV",300,"Robbery Firearm",-75.17170819,39.98049241,39.98049241,-75.17170819,"2008","Y"
"172",4420,"18","L",2008-06-19 21:29:00,2008-06-19,17:29:00,17,200818043142,"5300 BLOCK WEBSTER ST",400,"Aggravated Assault Firearm",-75.23106904,39.94891758,39.94891758,-75.23106904,"2008","Y"
"173",3628,"15","H",2008-11-05 17:14:00,2008-11-05,12:14:00,12,200815125826,"1900 BLOCK PRATT ST",400,"Aggravated Assault Firearm",-75.07327467,40.01663927,40.01663927,-75.07327467,"2008","Y"
"174",3633,"25","N",2008-11-10 14:29:00,2008-11-10,09:29:00,9,200825125560,"3000 BLOCK N BROAD ST",300,"Robbery Firearm",-75.15356795,39.99873299,39.99873299,-75.15356795,"2008","Y"
"175",3384,"04","E",2008-08-04 02:08:00,2008-08-03,22:08:00,22,200804035450,"S 06TH ST  /  WOLF ST",400,"Aggravated Assault Firearm",-75.157165,39.92022081,39.92022081,-75.157165,"2008","Y"
"176",4434,"15","D",2008-08-05 22:15:00,2008-08-05,18:15:00,18,200815089831,"1300 BLOCK ADAMS AVE",400,"Aggravated Assault Firearm",-75.09268088,40.01351174,40.01351174,-75.09268088,"2008","Y"
"177",4438,"26","J",2008-09-05 23:35:00,2008-09-05,19:35:00,19,200826059006,"2000 BLOCK HOPE ST",400,"Aggravated Assault Firearm",-75.13373549,39.98021784,39.98021784,-75.13373549,"2008","Y"
"178",4440,"22","K",2008-12-18 08:19:00,2008-12-18,03:19:00,3,200822087371,"N 27TH ST  /  W SERGEANT ST",400,"Aggravated Assault Firearm",-75.1760203,39.99443441,39.99443441,-75.1760203,"2008","Y"
"179",3653,"25","P",2008-11-18 22:48:00,2008-11-18,17:48:00,17,200825128551,"1000 BLOCK W LUZERNE ST",400,"Aggravated Assault Firearm",-75.14332209,40.0129355,40.0129355,-75.14332209,"2008","Y"
"180",3654,"35","K",2008-06-07 05:31:00,2008-06-07,01:31:00,1,200835052194,"CHELTEN AV  /  STENTON AVE",300,"Robbery Firearm",-75.1504745,40.05173244,40.05173244,-75.1504745,"2008","Y"
"181",3655,"22","S",2008-10-07 03:58:00,2008-10-06,23:58:00,23,200822071633,"1000 BLOCK W CUMBERLAND ST",300,"Robbery Firearm",-75.14834275,39.98998002,39.98998002,-75.14834275,"2008","Y"
"182",3421,"08","E",2008-09-14 14:38:00,2008-09-14,10:38:00,10,200808045649,"3100 BLOCK WILLITS RD",300,"Robbery Firearm",-75.01444665,40.05743399,40.05743399,-75.01444665,"2008","Y"
"183",4472,"25","J",2008-08-25 02:44:00,2008-08-24,22:44:00,22,200825093086,"800 BLOCK W CLEARFIELD ST",400,"Aggravated Assault Firearm",-75.14427733,39.99886043,39.99886042,-75.14427733,"2008","Y"
"184",4301,"25","O",2008-08-25 23:23:00,2008-08-25,19:23:00,19,200825093360,"3500 BLOCK GERMANTOWN AVE",300,"Robbery Firearm",-75.14939431,40.00738327,40.00738327,-75.14939431,"2008","Y"
"185",4307,"01","J",2008-12-27 01:29:00,2008-12-26,20:29:00,20,200801044420,"2300 BLOCK S BAILEY TER",400,"Aggravated Assault Firearm",-75.1898817,39.92398548,39.92398548,-75.1898817,"2008","Y"
"186",4308,"17","K",2008-09-21 06:43:00,2008-09-21,02:43:00,2,200817047468,"900 BLOCK S 23RD ST",400,"Aggravated Assault Firearm",-75.18100437,39.94187222,39.94187222,-75.18100437,"2008","Y"
"187",3455,"16","Q",2008-12-12 01:43:00,2008-12-11,20:43:00,20,200816070361,"N 46TH ST  /  LANCASTER AV",300,"Robbery Firearm",-75.21390187,39.97030446,39.97030446,-75.21390187,"2008","Y"
"188",3467,"02","H",2008-10-20 17:40:00,2008-10-20,13:40:00,13,200802070665,"2000 BLOCK COTTMAN AVE",300,"Robbery Firearm",-75.06540536,40.05081813,40.05081813,-75.06540536,"2008","Y"
"189",4530,"15","U",2008-10-09 18:42:00,2008-10-09,14:42:00,14,200815115715,"6900 BLOCK TORRESDALE AVE",300,"Robbery Firearm",-75.0432549,40.0259529,40.0259529,-75.0432549,"2008","Y"
"190",3484,"19","M",2008-12-20 19:12:00,2008-12-20,14:12:00,14,200819103221,"300 BLOCK N EDGEWOOD ST",400,"Aggravated Assault Firearm",-75.24046661,39.968227,39.968227,-75.24046661,"2008","Y"
"191",4348,"14","D",2008-06-08 00:06:00,2008-06-07,20:06:00,20,200814047353,"GREENE ST  /  W SCHOOL HOUSE LA",300,"Robbery Firearm",-75.17440271,40.0327373,40.0327373,-75.17440271,"2008","Y"
"192",4552,"05","F",2008-09-14 04:55:00,2008-09-14,00:55:00,0,200805023606,"4500 BLOCK WILDE ST",300,"Robbery Firearm",-75.22475291,40.02861503,40.02861503,-75.22475291,"2008","Y"
"193",3782,"15","H",2008-08-09 04:56:00,2008-08-09,00:56:00,0,200815091154,"7400 BLOCK CRISPIN",300,"Robbery Firearm",-75.04006387,40.04047427,40.04047427,-75.04006387,"2008","Y"
"194",9501,"15","B",2008-06-19 20:20:00,2008-06-19,16:20:00,16,200815069893,"4300 BLOCK MELROSE ST",300,"Robbery Firearm",-75.08271729,40.00613587,40.00613587,-75.08271729,"2008","Y"
"195",10174,"14","J",2008-10-08 16:47:00,2008-10-08,12:47:00,12,200814083971,"BAYNTON ST  /  E TULPEHOCKEN ST",300,"Robbery Firearm",-75.1783164,40.04371321,40.04371321,-75.1783164,"2008","Y"
"196",8850,"26","O",2008-11-25 14:07:00,2008-11-25,09:07:00,9,200826076645,"N LEITHGOW ST  /  DIAMOND ST",300,"Robbery Firearm",-75.14083027,39.9826693,39.9826693,-75.14083027,"2008","Y"
"197",9099,"22","S",2008-10-11 22:37:00,2008-10-11,18:37:00,18,200822072878,"2600 BLOCK GERMANTOWN AVE",300,"Robbery Firearm",-75.14831033,39.99151318,39.99151318,-75.14831033,"2008","Y"
"198",9117,"25","O",2008-10-19,2008-10-18,20:00:00,20,200825116471,"3500 BLOCK GERMANTOWN AVE",300,"Robbery Firearm",-75.14965156,40.00621957,40.00621957,-75.14965156,"2008","Y"
"199",10178,"15","D",2008-07-06 17:18:00,2008-07-06,13:18:00,13,200815077415,"CHURCH ST  /  GRISCOM ST",400,"Aggravated Assault Firearm",-75.08978197,40.0115788,40.0115788,-75.08978197,"2008","Y"
"200",9906,"25","R",2008-07-22 05:14:00,2008-07-22,01:14:00,1,200825078600,"3900 BLOCK N 05TH ST",400,"Aggravated Assault Firearm",-75.13585983,40.0119913,40.0119913,-75.13585983,"2008","Y"
"201",9176,"26","F",2008-06-12 07:42:00,2008-06-12,03:42:00,3,200826037476,"N WATER ST  /  E HUNTINGDON ST",300,"Robbery Firearm",-75.12995048,39.98913574,39.98913573,-75.12995048,"2008","Y"
"202",9978,"22","E",2008-08-08 01:47:00,2008-08-07,21:47:00,21,200822056778,"N COLORADO ST  /  W CUMBERLAND ST",300,"Robbery Firearm",-75.16060369,39.99155526,39.99155526,-75.16060369,"2008","Y"
"203",9979,"18","F",2008-10-05 06:44:00,2008-10-05,02:44:00,2,200818071940,"S 44TH ST  /  OSAGE AV",300,"Robbery Firearm",-75.21093756,39.95086813,39.95086813,-75.21093756,"2008","Y"
"204",8933,"23","B",2008-07-11 04:55:00,2008-07-11,00:55:00,0,200823032808,"N 13TH ST  /  MASTER ST",300,"Robbery Firearm",-75.15661868,39.97420757,39.97420757,-75.15661868,"2008","Y"
"205",8939,"25","L",2008-10-08 15:19:00,2008-10-08,11:19:00,11,200825111996,"400 BLOCK W LUZERNE ST",300,"Robbery Firearm",-75.13585983,40.0119913,40.0119913,-75.13585983,"2008","Y"
"206",8946,"25","S",2008-11-19 04:43:00,2008-11-18,23:43:00,23,200825128681,"3500 BLOCK ELLA ST",300,"Robbery Firearm",-75.12570564,40.00279245,40.00279245,-75.12570564,"2008","Y"
"207",9188,"12","F",2008-11-29 03:52:00,2008-11-28,22:52:00,22,200812103645,"7300 BLOCK ELMWOOD AVE",400,"Aggravated Assault Firearm",-75.24322885,39.91312147,39.91312147,-75.24322885,"2008","Y"
"208",9195,"12","G",2008-10-23 22:35:00,2008-10-23,18:35:00,18,200812093910,"6500 BLOCK KINGSESSING AVE",300,"Robbery Firearm",-75.23823687,39.92696121,39.9269612,-75.23823687,"2008","Y"
"209",9203,"12","I",2008-07-01 03:02:00,2008-06-30,23:02:00,23,200812057267,"6000 BLOCK W PASSYUNK AVE",400,"Aggravated Assault Firearm",-75.20870349,39.91830781,39.91830781,-75.20870349,"2008","Y"
"210",10007,"17","L",2008-10-25 14:56:00,2008-10-25,10:56:00,10,200817052895,"1700 BLOCK S 28TH ST",300,"Robbery Firearm",-75.19152073,39.93221044,39.93221044,-75.19152073,"2008","Y"
"211",9223,"23","L",2008-12-25 23:35:00,2008-12-25,18:35:00,18,200823059501,"N 26TH ST  /  POPLAR ST",300,"Robbery Firearm",-75.17914476,39.97265183,39.97265183,-75.17914476,"2008","Y"
"212",10016,"03","J",2008-08-12 02:02:00,2008-08-11,22:02:00,22,200803030124,"1300 BLOCK FEDERAL ST",300,"Robbery Firearm",-75.16511686,39.9353432,39.9353432,-75.16511686,"2008","Y"
"213",8987,"23","O",2008-08-01 06:38:00,2008-08-01,02:38:00,2,200823035989,"N 30TH ST  /  W OXFORD ST",300,"Robbery Firearm",-75.18384116,39.98059431,39.98059431,-75.18384116,"2008","Y"
"214",10072,"02","P",2008-08-26 03:09:00,2008-08-25,23:09:00,23,200802058143,"600 BLOCK ANCHOR ST",400,"Aggravated Assault Firearm",-75.1014273,40.04069555,40.04069555,-75.1014273,"2008","Y"
"215",9039,"35","E",2008-08-17 00:28:00,2008-08-16,20:28:00,20,200835077491,"N 11TH ST  /  W CHEW AV",300,"Robbery Firearm",-75.13921441,40.03915548,40.03915548,-75.13921441,"2008","Y"
"216",9040,"35","E",2008-06-07 16:40:00,2008-06-07,12:40:00,12,200835052329,"N 12TH ST  /  W CHEW AV",300,"Robbery Firearm",-75.14079575,40.03935927,40.03935927,-75.14079575,"2008","Y"
"217",9333,"39","E",2008-12-27 07:51:00,2008-12-27,02:51:00,2,200839090224,"N 16TH ST  /  W BUTLER ST",300,"Robbery Firearm",-75.15411,40.01125458,40.01125458,-75.15411,"2008","Y"
"218",10128,"26","S",2008-06-26 21:33:00,2008-06-26,17:33:00,17,200826041325,"GERMANTOWN AV  /  W CUMBERLAND ST",400,"Aggravated Assault Firearm",-75.14754552,39.98987305,39.98987305,-75.14754552,"2008","Y"
"219",10139,"35","E",2008-06-21 03:36:00,2008-06-20,23:36:00,23,200835057294,"N 13TH ST  /  W OLNEY AV",400,"Aggravated Assault Firearm",-75.14257664,40.03860417,40.03860417,-75.14257664,"2008","Y"
"220",9366,"39","N",2008-06-11 16:44:00,2008-06-11,12:44:00,12,200839039919,"3100 BLOCK W HUNTING PARK AVE",300,"Robbery Firearm",-75.18061445,40.0040116,40.0040116,-75.18061445,"2008","Y"
"221",8711,"12","Q",2008-08-14 05:30:00,2008-08-14,01:30:00,1,200812072006,"S 54TH ST  /  WARRINGTON AV",400,"Aggravated Assault Firearm",-75.22551174,39.94188086,39.94188086,-75.22551174,"2008","Y"
"222",9850,"09","E",2008-08-07 00:56:00,2008-08-06,20:56:00,20,200809041863,"S 16TH ST  /  SANSOM ST",300,"Robbery Firearm",-75.16735607,39.95051893,39.95051892,-75.16735607,"2008","Y"
"223",8743,"12","J",2008-11-30 05:34:00,2008-11-30,00:34:00,0,200812103959,"5900 BLOCK GREENWAY AVE",400,"Aggravated Assault Firearm",-75.22773741,39.93217966,39.93217966,-75.22773741,"2008","Y"
"224",8602,"19","I",2008-09-19 06:49:00,2008-09-19,02:49:00,2,200819076570,"1900 BLOCK N 52ND ST",300,"Robbery Firearm",-75.22794122,39.98852438,39.98852438,-75.22794122,"2008","Y"
"225",8606,"02","O",2008-10-10 03:49:00,2008-10-09,23:49:00,23,200802068200,"6000 BLOCK COLGATE ST",400,"Aggravated Assault Firearm",-75.10037645,40.04461506,40.04461506,-75.10037645,"2008","Y"
"226",8608,"02","N",2008-10-13 23:22:00,2008-10-13,19:22:00,19,200802069089,"6000 BLOCK ALGON AVE",400,"Aggravated Assault Firearm",-75.09063473,40.03984265,40.03984265,-75.09063473,"2008","Y"
"227",8610,"12","D",2008-11-03 04:57:00,2008-11-02,23:57:00,23,200812096638,"8200 BLOCK LYONS AVE",400,"Aggravated Assault Firearm",-75.24759112,39.89739733,39.89739733,-75.24759112,"2008","Y"
"228",8617,"39","B",2008-11-30 00:20:00,2008-11-29,19:20:00,19,200839083952,"1600 BLOCK W CLEARFIELD ST",400,"Aggravated Assault Firearm",-75.15704952,40.00051146,40.00051146,-75.15704952,"2008","Y"
"229",8621,"12","F",2008-06-03 05:11:00,2008-06-03,01:11:00,1,200812047510,"6800 BLOCK PASCHALL AVE",400,"Aggravated Assault Firearm",-75.23885429,39.92054546,39.92054546,-75.23885429,"2008","Y"
"230",9423,"04","F",2008-09-02 02:00:00,2008-09-01,22:00:00,22,200804040828,"600 BLOCK MERCY ST",400,"Aggravated Assault Firearm",-75.15653118,39.92315027,39.92315027,-75.15653118,"2008","Y"
"231",9425,"04","D",2008-10-07 02:19:00,2008-10-06,22:19:00,22,200804046907,"1000 BLOCK MIFFLIN ST",300,"Robbery Firearm",-75.1629026,39.92599917,39.92599917,-75.1629026,"2008","Y"
"232",9515,"09","S",2008-12-03 04:43:00,2008-12-02,23:43:00,23,200809062352,"800 BLOCK N 19TH ST",300,"Robbery Firearm",-75.16796668,39.96997669,39.96997669,-75.16796668,"2008","Y"
"233",9539,"01","A",2008-11-07 02:13:00,2008-11-06,21:13:00,21,200801039099,"S 17TH ST  /  MIFFLIN ST",300,"Robbery Firearm",-75.17399184,39.92744777,39.92744777,-75.17399183,"2008","Y"
"234",8768,"16","R",2008-11-15 12:49:00,2008-11-15,07:49:00,7,200816065090,"5000 BLOCK PARRISH ST",400,"Aggravated Assault Firearm",-75.22225657,39.96692258,39.96692258,-75.22225657,"2008","Y"
"235",8769,"16","R",2008-11-15 12:50:00,2008-11-15,07:50:00,7,200816065091,"5000 BLOCK PARRISH ST",400,"Aggravated Assault Firearm",-75.22225657,39.96692258,39.96692258,-75.22225657,"2008","Y"
"236",8781,"15","K",2008-10-07 13:55:00,2008-10-07,09:55:00,9,200815114728,"HORROCKS ST  /  E CHELTENHAM AV",300,"Robbery Firearm",-75.08086869,40.02956513,40.02956513,-75.08086868,"2008","Y"
"237",8632,"23","A",2008-12-27 19:00:00,2008-12-27,14:00:00,14,200823059788,"1200 BLOCK N 11TH ST",400,"Aggravated Assault Firearm",-75.15415245,39.97078761,39.97078761,-75.15415245,"2008","Y"
"238",8633,"26","R",2008-12-30 20:35:00,2008-12-30,15:35:00,15,200826084171,"800 BLOCK W SUSQUEHANNA AVE",400,"Aggravated Assault Firearm",-75.14727664,39.98513329,39.98513329,-75.14727664,"2008","Y"
"239",8640,"12","M",2008-08-28 07:45:00,2008-08-28,03:45:00,3,200812076497,"1700 BLOCK S RUBY ST",300,"Robbery Firearm",-75.21806948,39.93701515,39.93701515,-75.21806948,"2008","Y"
"240",8642,"18","T",2008-10-16 02:06:00,2008-10-15,22:06:00,22,200818074725,"4800 BLOCK WARRINGTON AVE",300,"Robbery Firearm",-75.21786429,39.94725462,39.94725462,-75.21786429,"2008","Y"
"241",9556,"08","E",2008-12-14 01:18:00,2008-12-13,20:18:00,20,200808060283,"8900 BLOCK FRANKFORD AVE",300,"Robbery Firearm",-75.00904527,40.05148146,40.05148146,-75.00904527,"2008","Y"
"242",9574,"04","H",2008-08-18 20:05:00,2008-08-18,16:05:00,16,200804038084,"S 03RD ST  /  OREGON AV",300,"Robbery Firearm",-75.15317695,39.91442231,39.91442231,-75.15317695,"2008","Y"
"243",7861,"12","O",2008-07-14 07:14:00,2008-07-14,03:14:00,3,200812061915,"S 55TH ST  /  WHITBY AV",300,"Robbery Firearm",-75.23094896,39.94434561,39.94434561,-75.23094896,"2008","Y"
"244",7866,"18","D",2008-08-27 00:29:00,2008-08-26,20:29:00,20,200818061778,"4100 BLOCK WALNUT ST",300,"Robbery Firearm",-75.20627692,39.95535692,39.95535692,-75.20627692,"2008","Y"
"245",7268,"26","M",2008-12-31 05:09:00,2008-12-31,00:09:00,0,200826084249,"800 BLOCK CECIL B MOORE AVE",400,"Aggravated Assault Firearm",-75.1484507,39.97745505,39.97745505,-75.1484507,"2008","Y"
"246",7456,"19","R",2008-10-25 22:35:00,2008-10-25,18:35:00,18,200819087904,"100 BLOCK N LINDENWOOD ST",300,"Robbery Firearm",-75.22585574,39.96173709,39.96173709,-75.22585574,"2008","Y"
"247",8069,"39","F",2008-11-23 17:43:00,2008-11-23,12:43:00,12,200839082780,"4300 BLOCK N BROAD ST",300,"Robbery Firearm",-75.14984433,40.01969722,40.01969722,-75.14984433,"2008","Y"
"248",8070,"39","F",2008-12-16 18:12:00,2008-12-16,13:12:00,13,200839087716,"4300 BLOCK N BROAD ST",300,"Robbery Firearm",-75.14984433,40.01969722,40.01969722,-75.14984433,"2008","Y"
"249",7470,"19","I",2008-08-25 02:38:00,2008-08-24,22:38:00,22,200819068386,"5200 BLOCK ARLINGTON ST",300,"Robbery Firearm",-75.22693289,39.98771868,39.98771868,-75.22693289,"2008","Y"
"250",7485,"22","G",2008-07-10 00:10:00,2008-07-09,20:10:00,20,200822049194,"1800 BLOCK DIAMOND ST",400,"Aggravated Assault Firearm",-75.16295302,39.9855518,39.9855518,-75.16295302,"2008","Y"
"251",8104,"02","K",2008-10-04 00:37:00,2008-10-03,20:37:00,20,200802066953,"HELLERMAN ST  /  SOUDER ST",300,"Robbery Firearm",-75.07298439,40.03889017,40.03889017,-75.07298439,"2008","Y"
"252",8112,"17","N",2008-10-21 09:41:00,2008-10-21,05:41:00,5,200817052214,"3000 BLOCK MIFFLIN ST",400,"Aggravated Assault Firearm",-75.19510565,39.93014718,39.93014718,-75.19510565,"2008","Y"
"253",8113,"18","J",2008-06-18 02:18:00,2008-06-17,22:18:00,22,200818042675,"S 52ND ST  /  ADDISON ST",400,"Aggravated Assault Firearm",-75.22643888,39.95254161,39.95254161,-75.22643888,"2008","Y"
"254",8118,"22","L",2008-10-09 05:35:00,2008-10-09,01:35:00,1,200822072157,"2600 BLOCK RIDGE DR",300,"Robbery Firearm",-75.1776886,39.98484669,39.98484669,-75.1776886,"2008","Y"
"255",8149,"15","N",2008-08-09 03:16:00,2008-08-08,23:16:00,23,200815091127,"3000 BLOCK SAINT VINCENT ST",400,"Aggravated Assault Firearm",-75.05220821,40.04062875,40.04062875,-75.05220821,"2008","Y"
"256",7360,"19","P",2008-08-07 15:49:00,2008-08-07,11:49:00,11,200819062721,"5600 BLOCK ARCH ST",400,"Aggravated Assault Firearm",-75.23253045,39.96256685,39.96256685,-75.23253045,"2008","Y"
"257",8166,"04","D",2008-12-21 06:55:00,2008-12-21,01:55:00,1,200804058355,"S 13TH ST  /  MIFFLIN ST",300,"Robbery Firearm",-75.16705609,39.92654593,39.92654593,-75.16705609,"2008","Y"
"258",8432,"01","B",2008-10-31 00:04:00,2008-10-30,20:04:00,20,200801038184,"1800 BLOCK MC KEAN ST",400,"Aggravated Assault Firearm",-75.17639723,39.92650114,39.92650114,-75.17639723,"2008","Y"
"259",8437,"19","P",2008-06-04 00:39:00,2008-06-03,20:39:00,20,200819039864,"0 BLOCK N HOBART ST",400,"Aggravated Assault Firearm",-75.23793368,39.96245424,39.96245423,-75.23793368,"2008","Y"
"260",8438,"15","H",2008-06-15 04:44:00,2008-06-15,00:44:00,0,200815067992,"4700 BLOCK CHARLES TER",400,"Aggravated Assault Firearm",-75.07837963,40.01467798,40.01467798,-75.07837963,"2008","Y"
"261",8439,"15","G",2008-07-03 04:01:00,2008-07-03,00:01:00,0,200815075823,"5100 BLOCK SAUL ST",400,"Aggravated Assault Firearm",-75.08122769,40.02431929,40.02431929,-75.08122769,"2008","Y"
"262",8450,"12","N",2008-08-08 18:47:00,2008-08-08,14:47:00,14,200812070208,"1100 BLOCK S DIVINITY ST",400,"Aggravated Assault Firearm",-75.21954983,39.94390347,39.94390347,-75.21954983,"2008","Y"
"263",8451,"24","H",2008-08-21 06:37:00,2008-08-21,02:37:00,2,200824072477,"3400 BLOCK JOYCE ST",400,"Aggravated Assault Firearm",-75.10379428,39.99727608,39.99727608,-75.10379428,"2008","Y"
"264",8452,"25","O",2008-08-27 16:13:00,2008-08-27,12:13:00,12,200825094031,"3500 BLOCK N WARNOCK ST",400,"Aggravated Assault Firearm",-75.14595606,40.00543091,40.00543091,-75.14595606,"2008","Y"
"265",7381,"24","G",2008-09-12 15:57:00,2008-09-12,11:57:00,11,200824079879,"2100 BLOCK E ALLEGHENY AVE",300,"Robbery Firearm",-75.10831578,39.9907406,39.9907406,-75.10831578,"2008","Y"
"266",7396,"22","P",2008-12-25 06:06:00,2008-12-25,01:06:00,1,200822088695,"N 32ND ST  /  RIDGE AV",300,"Robbery Firearm",-75.1849295,39.99060328,39.99060328,-75.1849295,"2008","Y"
"267",7547,"12","F",2008-11-29 03:09:00,2008-11-28,22:09:00,22,200812103644,"7300 BLOCK ELMWOOD AVE",400,"Aggravated Assault Firearm",-75.24322885,39.91312147,39.91312147,-75.24322885,"2008","Y"
"268",7427,"17","A",2008-12-25 03:10:00,2008-12-24,22:10:00,22,200817062234,"1500 BLOCK S 18TH ST",300,"Robbery Firearm",-75.17449778,39.93253276,39.93253276,-75.17449778,"2008","Y"
"269",7428,"17","C",2008-08-30 18:43:00,2008-08-30,14:43:00,14,200817043648,"S 15TH ST  /  BAINBRIDGE ST",300,"Robbery Firearm",-75.16737242,39.94300425,39.94300425,-75.16737242,"2008","Y"
"270",7572,"12","Q",2008-11-18 02:43:00,2008-11-17,21:43:00,21,200812100678,"S 56TH ST  /  WARRINGTON AV",300,"Robbery Firearm",-75.22826471,39.93995338,39.93995338,-75.22826471,"2008","Y"
"271",8208,"09","R",2008-10-09 02:57:00,2008-10-08,22:57:00,22,200809052881,"N 16TH ST  /  BROWN ST",400,"Aggravated Assault Firearm",-75.16348342,39.96830365,39.96830365,-75.16348342,"2008","Y"
"272",6752,"26","S",2008-11-28 15:42:00,2008-11-28,10:42:00,10,200826077277,"2600 BLOCK N FRANKLIN ST",300,"Robbery Firearm",-75.14446878,39.99264204,39.99264204,-75.14446878,"2008","Y"
"273",6766,"39","G",2008-12-11 05:08:00,2008-12-11,00:08:00,0,200839086440,"2700 BLOCK N 20TH ST",400,"Aggravated Assault Firearm",-75.16409752,39.9951781,39.9951781,-75.16409752,"2008","Y"
"274",7600,"22","O",2008-07-13 06:40:00,2008-07-13,02:40:00,2,200822050085,"3200 BLOCK W NORRIS ST",300,"Robbery Firearm",-75.18572134,39.98692827,39.98692827,-75.18572134,"2008","Y"
"275",8457,"22","S",2008-09-25 07:20:00,2008-09-25,03:20:00,3,200822069004,"1200 BLOCK W OAKDALE ST",400,"Aggravated Assault Firearm",-75.1509187,39.99297352,39.99297352,-75.1509187,"2008","Y"
"276",8461,"19","W",2008-07-07 04:02:00,2008-07-07,00:02:00,0,200819051817,"6700 BLOCK HAVERFORD AVE",300,"Robbery Firearm",-75.25422728,39.97259152,39.97259152,-75.25422728,"2008","Y"
"277",8468,"18","J",2008-11-28 20:27:00,2008-11-28,15:27:00,15,200818084755,"S 50TH ST  /  BALTIMORE AV",300,"Robbery Firearm",-75.22331798,39.947935,39.947935,-75.22331798,"2008","Y"
"278",6779,"35","F",2008-09-19 00:23:00,2008-09-18,20:23:00,20,200835088602,"70TH AV  /  N BROAD ST",400,"Aggravated Assault Firearm",-75.14020588,40.05973876,40.05973876,-75.14020588,"2008","Y"
"279",6781,"39","G",2008-10-21 19:42:00,2008-10-21,15:42:00,15,200839075375,"3000 BLOCK N 22ND ST",300,"Robbery Firearm",-75.16641144,40.00094251,40.00094251,-75.16641144,"2008","Y"
"280",7630,"24","C",2008-11-25 03:49:00,2008-11-24,22:49:00,22,200824102547,"2800 BLOCK HELEN ST",300,"Robbery Firearm",-75.12112376,39.98982134,39.98982134,-75.12112376,"2008","Y"
"281",8270,"12","K",2008-12-27 02:26:00,2008-12-26,21:26:00,21,200812111761,"S 54TH ST  /  WOODLAND AVE",300,"Robbery Firearm",-75.2189862,39.93637856,39.93637856,-75.2189862,"2008","Y"
"282",8276,"26","T",2008-07-24 19:15:00,2008-07-24,15:15:00,15,200826048598,"N 02ND ST  /  W SUSQUEHANNA AV",400,"Aggravated Assault Firearm",-75.13651534,39.98374911,39.98374911,-75.13651534,"2008","Y"
"283",8289,"35","I",2008-08-06 19:08:00,2008-08-06,15:08:00,15,200835073598,"BELFIELD AV  /  W RUSCOMB ST",300,"Robbery Firearm",-75.15328514,40.02996451,40.02996451,-75.15328514,"2008","Y"
"284",7051,"35","D",2008-09-27 07:24:00,2008-09-27,03:24:00,3,200835091385,"500 BLOCK W OLNEY AVE",300,"Robbery Firearm",-75.13152584,40.03657288,40.03657288,-75.13152584,"2008","Y"
"285",7056,"02","N",2008-11-07 22:22:00,2008-11-07,17:22:00,17,200802074561,"1000 BLOCK STEVENS TER",300,"Robbery Firearm",-75.08988708,40.04068392,40.04068392,-75.08988708,"2008","Y"
"286",7057,"17","N",2008-11-24 04:20:00,2008-11-23,23:20:00,23,200817057366,"1600 BLOCK S NAPA ST",400,"Aggravated Assault Firearm",-75.19703707,39.93291022,39.93291022,-75.19703707,"2008","Y"
"287",7058,"25","J",2008-11-28 22:50:00,2008-11-28,17:50:00,17,200825132021,"3100 BLOCK N 10TH ST",300,"Robbery Firearm",-75.14622128,39.9996779,39.9996779,-75.14622128,"2008","Y"
"288",7071,"22","I",2008-10-04 15:03:00,2008-10-04,11:03:00,11,200822071144,"N 22ND ST  /  W SEDGLEY AVE",400,"Aggravated Assault Firearm",-75.1682504,39.99258875,39.99258875,-75.16825039,"2008","Y"
"289",7655,"12","Q",2008-09-29 13:40:00,2008-09-29,09:40:00,9,200812086869,"S 55TH ST  /  CHESTER AV",300,"Robbery Firearm",-75.2242942,39.93874356,39.93874356,-75.2242942,"2008","Y"
"290",7665,"22","H",2008-12-11 15:39:00,2008-12-11,10:39:00,10,200822085907,"2300 BLOCK N CLEVELAND ST",300,"Robbery Firearm",-75.1624981,39.99027693,39.99027692,-75.1624981,"2008","Y"
"291",6851,"23","J",2008-09-20 19:27:00,2008-09-20,15:27:00,15,200823044267,"2400 BLOCK W OXFORD ST",400,"Aggravated Assault Firearm",-75.17439648,39.97938934,39.97938934,-75.17439648,"2008","Y"
"292",6852,"22","B",2008-10-07 01:58:00,2008-10-06,21:58:00,21,200822071628,"1000 BLOCK W YORK ST",300,"Robbery Firearm",-75.14866572,39.98848572,39.98848572,-75.14866572,"2008","Y"
"293",7882,"06","E",2008-10-16 07:20:00,2008-10-16,03:20:00,3,200806059128,"100 BLOCK S 11TH ST",400,"Aggravated Assault Firearm",-75.15863583,39.95021212,39.95021212,-75.15863583,"2008","Y"
"294",6857,"09","N",2008-10-30 06:32:00,2008-10-30,02:32:00,2,200809056499,"700 BLOCK N 24TH ST",300,"Robbery Firearm",-75.17701687,39.9673819,39.9673819,-75.17701687,"2008","Y"
"295",6861,"22","M",2008-11-18 01:10:00,2008-11-17,20:10:00,20,200822080921,"2400 BLOCK EDGLEY ST",400,"Aggravated Assault Firearm",-75.17405116,39.9876312,39.9876312,-75.17405116,"2008","Y"
"296",6862,"18","G",2008-11-23 02:34:00,2008-11-22,21:34:00,21,200818083620,"4800 BLOCK WOODLAND AVE",300,"Robbery Firearm",-75.21225594,39.94125901,39.94125901,-75.21225594,"2008","Y"
"297",6864,"17","F",2008-12-03 19:15:00,2008-12-03,14:15:00,14,200817058747,"1500 BLOCK FEDERAL ST",400,"Aggravated Assault Firearm",-75.1701565,39.93619746,39.93619746,-75.1701565,"2008","Y"
"298",6872,"23","A",2008-12-27 16:34:00,2008-12-27,11:34:00,11,200823059768,"1200 BLOCK N 11TH ST",400,"Aggravated Assault Firearm",-75.15415245,39.97078761,39.97078761,-75.15415245,"2008","Y"
"299",6875,"25","P",2008-08-02 02:50:00,2008-08-01,22:50:00,22,200825083198,"4200 BLOCK N BROAD ST",300,"Robbery Firearm",-75.14839789,40.01679992,40.01679992,-75.14839789,"2008","Y"
"300",7718,"26","E",2008-06-06 03:06:00,2008-06-05,23:06:00,23,200826035949,"E HAGERT ST  /  FRANKFORD AV",300,"Robbery Firearm",-75.12674331,39.98234793,39.98234793,-75.12674331,"2008","Y"
"301",6888,"24","N",2008-08-20 01:57:00,2008-08-19,21:57:00,21,200824072006,"4000 BLOCK MAYWOOD ST",400,"Aggravated Assault Firearm",-75.10001648,40.00736464,40.00736464,-75.10001648,"2008","Y"
"302",6903,"24","D",2008-06-11 22:40:00,2008-06-11,18:40:00,18,200824049825,"2900 BLOCK WEIKEL ST",400,"Aggravated Assault Firearm",-75.11423932,39.98661794,39.98661794,-75.11423932,"2008","Y"
"303",6905,"17","D",2008-06-12 05:42:00,2008-06-12,01:42:00,1,200817028724,"2100 BLOCK WATKINS ST",400,"Aggravated Assault Firearm",-75.18018775,39.93032373,39.93032373,-75.18018775,"2008","Y"
"304",6906,"25","J",2008-06-22 23:32:00,2008-06-22,19:32:00,19,200825066456,"3000 BLOCK GERMANTOWN AVE",400,"Aggravated Assault Firearm",-75.14740593,39.99924954,39.99924954,-75.14740593,"2008","Y"
"305",6907,"22","S",2008-06-27 07:11:00,2008-06-27,03:11:00,3,200822045886,"1000 BLOCK W HUNTINGDON ST",300,"Robbery Firearm",-75.14893822,39.9915895,39.9915895,-75.14893822,"2008","Y"
"306",7938,"26","L",2008-07-09 21:15:00,2008-07-09,17:15:00,17,200826044802,"N 09TH ST  /  W GIRARD AV",300,"Robbery Firearm",-75.15094284,39.97053339,39.97053339,-75.15094284,"2008","Y"
"307",6915,"12","M",2008-07-10 06:09:00,2008-07-10,02:09:00,2,200812060605,"1500 BLOCK S 52ND ST",300,"Robbery Firearm",-75.2175049,39.93936446,39.93936446,-75.2175049,"2008","Y"
"308",6923,"22","S",2008-09-25 04:11:00,2008-09-25,00:11:00,0,200822068987,"1200 BLOCK W OAKDALE ST",400,"Aggravated Assault Firearm",-75.1509187,39.99297352,39.99297352,-75.1509187,"2008","Y"
"309",6931,"12","K",2008-09-16 18:33:00,2008-09-16,14:33:00,14,200812082684,"S 54TH ST  /  LINDBERGH BLVD",300,"Robbery Firearm",-75.21557141,39.93349875,39.93349875,-75.21557141,"2008","Y"
"310",7769,"22","S",2008-10-07 01:57:00,2008-10-06,21:57:00,21,200822071625,"2500 BLOCK GERMANTOWN AVE",300,"Robbery Firearm",-75.14838021,39.99122572,39.99122572,-75.14838021,"2008","Y"
"311",7770,"17","A",2008-08-27 18:21:00,2008-08-27,14:21:00,14,200817043121,"1500 BLOCK MOORE ST",300,"Robbery Firearm",-75.17059541,39.92827489,39.92827489,-75.17059541,"2008","Y"
"312",7958,"22","J",2008-09-02 00:40:00,2008-09-01,20:40:00,20,200822063361,"2000 BLOCK N 23RD ST",400,"Aggravated Assault Firearm",-75.17139621,39.98561318,39.98561318,-75.17139621,"2008","Y"
"313",7979,"02","R",2008-12-11 02:51:00,2008-12-10,21:51:00,21,200802081718,"700 BLOCK ADAMS AVE",300,"Robbery Firearm",-75.1075769,40.03244813,40.03244813,-75.1075769,"2008","Y"
"314",7803,"35","A",2008-10-28 02:16:00,2008-10-27,22:16:00,22,200835100645,"100 BLOCK E ROOSEVELT BLVD",300,"Robbery Firearm",-75.12184514,40.02616496,40.02616496,-75.12184514,"2008","Y"
"315",7213,"25","I",2008-12-15 15:22:00,2008-12-15,10:22:00,10,200825138510,"2700 BLOCK N 05TH ST",300,"Robbery Firearm",-75.13985353,39.99368116,39.99368116,-75.13985353,"2008","Y"
"316",7227,"35","B",2008-06-02 21:16:00,2008-06-02,17:16:00,17,200835050536,"300 BLOCK W NEDRO AVE",400,"Aggravated Assault Firearm",-75.12764048,40.04082315,40.04082315,-75.12764048,"2008","Y"
"317",7819,"12","Q",2008-10-27 22:00:00,2008-10-27,18:00:00,18,200812094955,"S 55TH ST  /  SPRINGFIELD AV",400,"Aggravated Assault Firearm",-75.22548293,39.93973425,39.93973425,-75.22548293,"2008","Y"
"318",7840,"12","F",2008-11-29 03:52:00,2008-11-28,22:52:00,22,200812103647,"7300 BLOCK ELMWOOD AVE",400,"Aggravated Assault Firearm",-75.24322885,39.91312147,39.91312147,-75.24322885,"2008","Y"
"319",7842,"22","M",2008-12-18 00:14:00,2008-12-17,19:14:00,19,200822087268,"N 27TH ST  /  W DAUPHIN ST",300,"Robbery Firearm",-75.17686852,39.99059097,39.99059097,-75.17686852,"2008","Y"
"320",8023,"22","S",2008-09-18 13:41:00,2008-09-18,09:41:00,9,200822067314,"N 11TH ST  /  W HUNTINGDON ST",300,"Robbery Firearm",-75.14958912,39.99167461,39.99167461,-75.14958912,"2008","Y"
"321",8036,"35","K",2008-06-30 01:52:00,2008-06-29,21:52:00,21,200835060615,"N 17TH ST  /  CHELTEN AV",300,"Robbery Firearm",-75.14700724,40.05118454,40.05118454,-75.14700724,"2008","Y"
"322",7241,"19","M",2008-11-25 00:40:00,2008-11-24,19:40:00,19,200819095958,"5900 BLOCK HAVERFORD AVE",300,"Robbery Firearm",-75.23913632,39.96990222,39.96990222,-75.23913633,"2008","Y"
"323",7258,"14","Y",2008-07-16 04:30:00,2008-07-16,00:30:00,0,200814059546,"7100 BLOCK N 20TH ST",400,"Aggravated Assault Firearm",-75.15159189,40.06240032,40.06240032,-75.15159189,"2008","Y"
"324",7006,"22","P",2008-12-31 02:03:00,2008-12-30,21:03:00,21,200822089864,"3100 BLOCK FRENCH ST",300,"Robbery Firearm",-75.18370239,39.98926961,39.98926961,-75.18370239,"2008","Y"
"325",7011,"16","R",2008-11-11 07:56:00,2008-11-11,02:56:00,2,200816064264,"5000 BLOCK PARRISH ST",400,"Aggravated Assault Firearm",-75.22225657,39.96692258,39.96692258,-75.22225657,"2008","Y"
"326",12970,"14","Z",2008-11-18 22:39:00,2008-11-18,17:39:00,17,200814094464,"700 BLOCK E CHELTEN AVE",300,"Robbery Firearm",-75.16483366,40.04547734,40.04547734,-75.16483366,"2008","Y"
"327",12316,"14","X",2008-12-07 20:38:00,2008-12-07,15:38:00,15,200814099140,"700 BLOCK E CHELTEN AVE",300,"Robbery Firearm",-75.1660877,40.04425255,40.04425255,-75.1660877,"2008","Y"
"328",12324,"18","H",2008-11-17 19:31:00,2008-11-17,14:31:00,14,200818082325,"S 46TH ST  /  SANSOM ST",300,"Robbery Firearm",-75.24209001,39.96531293,39.96531293,-75.24209001,"2008","Y"
"329",12547,"24","P",2008-12-28 06:57:00,2008-12-28,01:57:00,1,200824111257,"200 BLOCK E TUSCULUM ST",300,"Robbery Firearm",-75.12707299,39.99268393,39.99268393,-75.12707299,"2008","Y"
"330",12548,"24","N",2008-12-27 19:22:00,2008-12-27,14:22:00,14,200824111090,"1600 BLOCK E ERIE AVE",300,"Robbery Firearm",-75.09634977,40.00586099,40.00586099,-75.09634977,"2008","Y"
"331",13663,"12","G",2008-08-24 00:23:00,2008-08-23,20:23:00,20,200812075225,"6700 BLOCK YOCUM ST",400,"Aggravated Assault Firearm",-75.23903392,39.92325007,39.92325007,-75.23903392,"2008","Y"
"332",13686,"09","E",2008-09-18 22:24:00,2008-09-18,18:24:00,18,200809049496,"1900 BLOCK WALNUT ST",300,"Robbery Firearm",-75.17372476,39.95098349,39.95098349,-75.17372476,"2008","Y"
"333",13706,"15","K",2008-11-17 18:44:00,2008-11-17,13:44:00,13,200815130392,"1600 BLOCK E CHELTENHAM AVE",300,"Robbery Firearm",-75.07847568,40.02821726,40.02821726,-75.07847568,"2008","Y"
"334",12409,"15","J",2008-10-14 20:30:00,2008-10-14,16:30:00,16,200815117760,"6100 BLOCK DITMAN ST",400,"Aggravated Assault Firearm",-75.05772894,40.02000458,40.02000458,-75.05772894,"2008","Y"
"335",12419,"15","D",2008-10-23 03:19:00,2008-10-22,23:19:00,23,200815121019,"4400 BLOCK OAKLAND ST",300,"Robbery Firearm",-75.09228201,40.01530398,40.01530398,-75.09228201,"2008","Y"
"336",12421,"12","L",2008-11-18 01:00:00,2008-11-17,20:00:00,20,200812100658,"S 56TH ST  /  HADFIELD ST",300,"Robbery Firearm",-75.23142007,39.94263178,39.94263178,-75.23142007,"2008","Y"
"337",13153,"02","R",2008-10-21 17:53:00,2008-10-21,13:53:00,13,200802070866,"700 BLOCK ADAMS AVE",300,"Robbery Firearm",-75.10643361,40.03267039,40.03267039,-75.10643361,"2008","Y"
"338",13475,"25","K",2008-10-13 14:04:00,2008-10-13,10:04:00,10,200825114210,"N 03RD ST  /  W ONTARIO ST",400,"Aggravated Assault Firearm",-75.13499471,40.0024548,40.0024548,-75.13499472,"2008","Y"
"339",12437,"16","P",2008-09-30 10:23:00,2008-09-30,06:23:00,6,200816055415,"800 BLOCK N MARKOE ST",300,"Robbery Firearm",-75.21461164,39.96763353,39.96763353,-75.21461164,"2008","Y"
"340",12459,"02","N",2008-11-21 22:19:00,2008-11-21,17:19:00,17,200802077648,"4800 BLOCK LANGDON ST",300,"Robbery Firearm",-75.09691182,40.02972858,40.02972858,-75.09691182,"2008","Y"
"341",12757,"24","P",2008-07-18 09:14:00,2008-07-18,05:14:00,5,200824061624,"3100 BLOCK REACH ST",400,"Aggravated Assault Firearm",-75.11629947,39.99524707,39.99524707,-75.11629947,"2008","Y"
"342",13552,"14","J",2008-06-26 16:06:00,2008-06-26,12:06:00,12,200814053359,"0 BLOCK E WALNUT LN",400,"Aggravated Assault Firearm",-75.17681801,40.04200352,40.04200352,-75.17681801,"2008","Y"
"343",12546,"35","F",2008-08-25 15:36:00,2008-08-25,11:36:00,11,200835080330,"N 10TH ST  /  CHELTEN AV",300,"Robbery Firearm",-75.13504394,40.04896391,40.04896391,-75.13504394,"2008","Y"
"344",12780,"22","C",2008-09-01 04:30:00,2008-09-01,00:30:00,0,200822063203,"1800 BLOCK N BOUVIER ST",300,"Robbery Firearm",-75.16315843,39.98095092,39.98095092,-75.16315843,"2008","Y"
"345",12781,"08","L",2008-12-18 23:40:00,2008-12-18,18:40:00,18,200808061045,"8200 BLOCK E ROOSEVELT BLVD",300,"Robbery Firearm",-75.04385402,40.05950792,40.05950792,-75.04385402,"2008","Y"
"346",12783,"19","X",2008-10-19 07:27:00,2008-10-19,03:27:00,3,200819085977,"5500 BLOCK W GIRARD AVE",400,"Aggravated Assault Firearm",-75.23066772,39.97090378,39.97090378,-75.23066772,"2008","Y"
"347",12788,"35","G",2008-07-08 06:20:00,2008-07-08,02:20:00,2,200835063545,"4500 BLOCK OLD YORK RD",300,"Robbery Firearm",-75.14711356,40.02128954,40.02128954,-75.14711356,"2008","Y"
"348",12826,"22","S",2008-09-07 18:07:00,2008-09-07,14:07:00,14,200822064766,"2600 BLOCK GERMANTOWN AVE",400,"Aggravated Assault Firearm",-75.14831033,39.99151318,39.99151318,-75.14831033,"2008","Y"
"349",12858,"26","F",2008-07-27 07:45:00,2008-07-27,03:45:00,3,200826049354,"100 BLOCK E LEHIGH AVE",400,"Aggravated Assault Firearm",-75.12897718,39.99064983,39.99064983,-75.12897718,"2008","Y"
"350",12863,"25","D",2008-12-31 00:57:00,2008-12-30,19:57:00,19,200825143785,"600 BLOCK E ALLEGHENY AVE",300,"Robbery Firearm",-75.11933085,39.99726411,39.99726411,-75.11933085,"2008","Y"
"351",12871,"24","C",2008-09-30 03:54:00,2008-09-29,23:54:00,23,200824085758,"2800 BLOCK JASPER ST",400,"Aggravated Assault Firearm",-75.12155542,39.99029677,39.99029677,-75.12155542,"2008","Y"
"352",12900,"25","H",2008-10-22 02:37:00,2008-10-21,22:37:00,22,200825117619,"300 BLOCK W INDIANA AVE",300,"Robbery Firearm",-75.13634877,39.99629792,39.99629792,-75.13634877,"2008","Y"
"353",13006,"18","G",2008-06-04 16:44:00,2008-06-04,12:44:00,12,200818038870,"4700 BLOCK WOODLAND AVE",400,"Aggravated Assault Firearm",-75.21085629,39.94335619,39.94335619,-75.21085629,"2008","Y"
"354",12287,"19","L",2008-11-23 19:02:00,2008-11-23,14:02:00,14,200819095665,"N 60TH ST  /  SPRING ST",300,"Robbery Firearm",-75.24537102,39.96415913,39.96415913,-75.24537102,"2008","Y"
"355",12294,"12","F",2008-11-10 19:49:00,2008-11-10,14:49:00,14,200812098659,"S 70TH ST  /  GRAYS AVE",300,"Robbery Firearm",-75.23883373,39.91839553,39.91839553,-75.23883373,"2008","Y"
"356",12157,"12","O",2008-12-27 23:58:00,2008-12-27,18:58:00,18,200812112001,"S 56TH ST  /  WILLOWS AV",300,"Robbery Firearm",-75.23093061,39.94220395,39.94220395,-75.23093061,"2008","Y"
"357",11343,"35","J",2008-09-18 20:20:00,2008-09-18,16:20:00,16,200835088532,"N 16TH ST  /  W CHEW AV",400,"Aggravated Assault Firearm",-75.1480864,40.04048937,40.04048937,-75.1480864,"2008","Y"
"358",11531,"15","K",2008-12-27 05:34:00,2008-12-27,00:34:00,0,200815144061,"5900 BLOCK SYLVESTER ST",300,"Robbery Firearm",-75.07868684,40.03063676,40.03063676,-75.07868683,"2008","Y"
"359",11549,"22","M",2008-11-14 15:22:00,2008-11-14,10:22:00,10,200822080094,"2100 BLOCK N 22ND ST",400,"Aggravated Assault Firearm",-75.1692363,39.98796818,39.98796818,-75.1692363,"2008","Y"
"360",11550,"24","P",2008-12-20 16:47:00,2008-12-20,11:47:00,11,200824109345,"3100 BLOCK KENSINGTON AVE",300,"Robbery Firearm",-75.11564793,39.99581839,39.99581839,-75.11564793,"2008","Y"
"361",11821,"24","P",2008-08-07 03:32:00,2008-08-06,23:32:00,23,200824067899,"100 BLOCK E LEHIGH AVE",300,"Robbery Firearm",-75.12897718,39.99064983,39.99064983,-75.12897718,"2008","Y"
"362",10790,"18","S",2008-10-26 07:20:00,2008-10-26,03:20:00,3,200818077193,"6200 BLOCK CHESTNUT ST",300,"Robbery Firearm",-75.24707932,39.96119291,39.96119291,-75.24707932,"2008","Y"
"363",10951,"12","D",2008-10-18 04:19:00,2008-10-18,00:19:00,0,200812092424,"S 78TH ST  /  LINDBERGH BLVD",300,"Robbery Firearm",-75.24319903,39.90358196,39.90358196,-75.24319903,"2008","Y"
"364",10953,"23","A",2008-06-15 21:36:00,2008-06-15,17:36:00,17,200823028210,"N 13TH ST  /  POPLAR ST",300,"Robbery Firearm",-75.15762234,39.96969726,39.96969726,-75.15762234,"2008","Y"
"365",11848,"22","S",2008-07-16 01:44:00,2008-07-15,21:44:00,21,200822050733,"N 11TH ST  /  W OAKDALE ST",300,"Robbery Firearm",-75.14939207,39.99255778,39.99255778,-75.14939206,"2008","Y"
"366",10848,"12","E",2008-07-25 08:20:00,2008-07-25,04:20:00,4,200812065442,"68TH  / ELMWOOD AVE",300,"Robbery Firearm",-75.23440667,39.91933474,39.91933474,-75.23440667,"2008","Y"
"367",11932,"02","K",2008-12-27 00:21:00,2008-12-26,19:21:00,19,200802085274,"DEVEREAUX AV  /  FRONTENAC ST",300,"Robbery Firearm",-75.08329268,40.03890672,40.03890672,-75.08329268,"2008","Y"
"368",10894,"05","F",2008-09-14 04:16:00,2008-09-14,00:16:00,0,200805023608,"4500 BLOCK BAKER ST",300,"Robbery Firearm",-75.22615981,40.02765791,40.02765791,-75.22615981,"2008","Y"
"369",11038,"14","S",2008-10-25 21:37:00,2008-10-25,17:37:00,17,200814088587,"1600 BLOCK E MOUNT AIRY AVE",300,"Robbery Firearm",-75.17054835,40.08018891,40.08018891,-75.17054835,"2008","Y"
"370",11666,"09","C",2008-07-09 04:05:00,2008-07-09,00:05:00,0,200809036664,"S 25TH ST  /  SPRUCE ST",300,"Robbery Firearm",-75.18113587,39.94901763,39.94901763,-75.18113587,"2008","Y"
"371",11713,"14","A",2008-08-16 14:43:00,2008-08-16,10:43:00,10,200814069089,"E WALNUT LA  /  75TH AV",300,"Robbery Firearm",-75.15232506,40.0689108,40.0689108,-75.15232506,"2008","Y"
"372",11132,"17","G",2008-06-01 06:14:00,2008-06-01,02:14:00,2,200817026692,"700 BLOCK S CLEVELAND ST",300,"Robbery Firearm",-75.17278013,39.94267838,39.94267838,-75.17278013,"2008","Y"
"373",11141,"14","P",2008-10-30 18:50:00,2008-10-30,14:50:00,14,200814089738,"GOWEN  /  SPRAGUE",300,"Robbery Firearm",-75.19042116,40.06508258,40.06508258,-75.19042116,"2008","Y"
"374",11800,"02","H",2008-09-17 14:48:00,2008-09-17,10:48:00,10,200802063362,"2200 BLOCK COTTMAN AVE",300,"Robbery Firearm",-75.059939,40.04776041,40.04776041,-75.059939,"2008","Y"
"375",10323,"05","H",2008-09-14 05:06:00,2008-09-14,01:06:00,1,200805023610,"4800 BLOCK SMICK ST",300,"Robbery Firearm",-75.2310315,40.03310473,40.03310473,-75.2310315,"2008","Y"
"376",10654,"18","L",2008-12-24 19:24:00,2008-12-24,14:24:00,14,200818091180,"500 BLOCK S 52ND ST",300,"Robbery Firearm",-75.2266598,39.9514772,39.9514772,-75.2266598,"2008","Y"
"377",10714,"04","F",2008-12-11 00:37:00,2008-12-10,19:37:00,19,200804056847,"S 08TH ST  /  WOLF ST",300,"Robbery Firearm",-75.16027696,39.92062059,39.92062058,-75.16027696,"2008","Y"
"378",11523,"35","H",2008-07-14 05:14:00,2008-07-14,01:14:00,1,200835065653,"N 13TH ST  /  W RUSCOMB ST",300,"Robbery Firearm",-75.14471893,40.02886493,40.02886493,-75.14471893,"2008","Y"
"379",10491,"14","P",2008-11-01 08:04:00,2008-11-01,04:04:00,4,200814090200,"E GOWEN AV  /  SPRAGUE ST",300,"Robbery Firearm",-75.19042116,40.06508258,40.06508258,-75.19042116,"2008","Y"
"380",16469,"15","F",2008-08-21 06:50:00,2008-08-21,02:50:00,2,200815096157,"1700 BLOCK KINSEY ST",300,"Robbery Firearm",-75.08445315,40.01248868,40.01248868,-75.08445315,"2008","Y"
"381",16567,"12","N",2008-09-24 22:38:00,2008-09-24,18:38:00,18,200812085470,"S 51ST ST  /  FLORENCE AVE",300,"Robbery Firearm",-75.22291729,39.94567818,39.94567818,-75.22291729,"2008","Y"
"382",16049,"14","S",2008-12-14 15:39:00,2008-12-14,10:39:00,10,200814100942,"3100 BLOCK W CHELTENHAM AVE",300,"Robbery Firearm",-75.17171437,40.08187235,40.08187235,-75.17171437,"2008","Y"
"383",16839,"12","F",2008-12-30 03:58:00,2008-12-29,22:58:00,22,200812112605,"71ST AND ELMWOOD",400,"Aggravated Assault Firearm",-75.23898765,39.91611196,39.91611196,-75.23898765,"2008","Y"
"384",17141,"12","M",2008-07-26 04:59:00,2008-07-26,00:59:00,0,200812065773,"1400 BLOCK S 52ND ST",400,"Aggravated Assault Firearm",-75.21890264,39.94054234,39.94054233,-75.21890264,"2008","Y"
"385",17173,"15","D",2008-12-02 01:18:00,2008-12-01,20:18:00,20,200815135181,"1500 BLOCK UNITY ST",300,"Robbery Firearm",-75.08923833,40.01349893,40.01349893,-75.08923833,"2008","Y"
"386",17189,"26","F",2008-08-23 01:05:00,2008-08-22,21:05:00,21,200826055557,"2400 BLOCK KENSINGTON AVE",300,"Robbery Firearm",-75.13079658,39.98693718,39.98693718,-75.13079658,"2008","Y"
"387",16610,"35","M",2008-09-06 02:55:00,2008-09-05,22:55:00,22,200835084323,"N 18TH ST  /  W OLNEY AV",300,"Robbery Firearm",-75.15204624,40.03919513,40.03919513,-75.15204624,"2008","Y"
"388",15904,"35","B",2008-09-09 01:59:00,2008-09-08,21:59:00,21,200835085277,"300 BLOCK E CHEW AVE",300,"Robbery Firearm",-75.11516107,40.03600585,40.03600585,-75.11516107,"2008","Y"
"389",16627,"15","H",2008-09-16 08:14:00,2008-09-16,04:14:00,4,200815106508,"1900 BLOCK GRANITE ST",300,"Robbery Firearm",-75.07256733,40.01679621,40.01679621,-75.07256733,"2008","Y"
"390",16635,"14","A",2008-08-02 20:38:00,2008-08-02,16:38:00,16,200814064957,"72ND AV  /  N 21ST ST",300,"Robbery Firearm",-75.15225684,40.06430701,40.064307,-75.15225684,"2008","Y"
"391",16949,"35","S",2008-07-12 08:33:00,2008-07-12,04:33:00,4,200835065062,"1000 BLOCK WAGNER AVE",300,"Robbery Firearm",-75.13816607,40.03581554,40.03581554,-75.13816607,"2008","Y"
"392",15938,"23","C",2008-07-17 18:59:00,2008-07-17,14:59:00,14,200823033783,"N CARLISLE ST  /  CAMBRIDGE ST",300,"Robbery Firearm",-75.16043679,39.97091834,39.97091834,-75.16043679,"2008","Y"
"393",16188,"12","H",2008-12-08 02:06:00,2008-12-07,21:06:00,21,200812106266,"6600 BLOCK GUYER AVE",300,"Robbery Firearm",-75.22829332,39.91856382,39.91856382,-75.22829332,"2008","Y"
"394",16650,"22","A",2008-08-26 18:13:00,2008-08-26,14:13:00,14,200822061663,"N WARNOCK ST  /  W BERKS ST",400,"Aggravated Assault Firearm",-75.15112366,39.98093202,39.98093202,-75.15112366,"2008","Y"
"395",16659,"06","S",2008-11-22 04:50:00,2008-11-21,23:50:00,23,200806066118,"N 06TH ST  /  GREEN ST",300,"Robbery Firearm",-75.14803124,39.96227449,39.96227449,-75.14803124,"2008","Y"
"396",16661,"12","L",2008-10-15 18:27:00,2008-10-15,14:27:00,14,200812091680,"57TH / HOFFMAN",300,"Robbery Firearm",-75.23662453,39.94467853,39.94467853,-75.23662453,"2008","Y"
"397",16987,"25","I",2008-11-26 14:25:00,2008-11-26,09:25:00,9,200825131172,"500 BLOCK W LEHIGH AVE",300,"Robbery Firearm",-75.14086566,39.9921833,39.9921833,-75.14086566,"2008","Y"
"398",17013,"25","E",2008-09-02 18:52:00,2008-09-02,14:52:00,14,200825096591,"4600 BLOCK D ST",400,"Aggravated Assault Firearm",-75.11640696,40.01891852,40.01891852,-75.11640696,"2008","Y"
"399",17016,"16","S",2008-06-15 19:22:00,2008-06-15,15:22:00,15,200816031914,"5100 BLOCK WYALUSING AVE",300,"Robbery Firearm",-75.22312138,39.96975679,39.96975679,-75.22312138,"2008","Y"
"400",15995,"12","O",2008-06-13 19:38:00,2008-06-13,15:38:00,15,200812051126,"S 52ND ST  /  PENTRIDGE ST",300,"Robbery Firearm",-75.22456223,39.94531825,39.94531825,-75.22456223,"2008","Y"
"401",16004,"16","K",2008-12-20 03:59:00,2008-12-19,22:59:00,22,200816072021,"700 BLOCK N HOLLY ST",300,"Robbery Firearm",-75.20652045,39.96597661,39.9659766,-75.20652045,"2008","Y"
"402",17034,"25","J",2008-07-14 01:27:00,2008-07-13,21:27:00,21,200825075192,"500 BLOCK W ALLEGHENY AVE",300,"Robbery Firearm",-75.13907238,39.99982074,39.99982074,-75.13907238,"2008","Y"
"403",17045,"12","H",2008-10-06 01:39:00,2008-10-05,21:39:00,21,200812088878,"6500 BLOCK ELMWOOD AVE",300,"Robbery Firearm",-75.23033039,39.92221059,39.92221059,-75.23033039,"2008","Y"
"404",16776,"26","I",2008-12-14 07:49:00,2008-12-14,02:49:00,2,200826080785,"1700 BLOCK N HANCOCK ST",300,"Robbery Firearm",-75.13706462,39.97604179,39.97604179,-75.13706461,"2008","Y"
"405",17083,"25","H",2008-10-02 22:36:00,2008-10-02,18:36:00,18,200825109519,"2900 BLOCK N HOWARD ST",400,"Aggravated Assault Firearm",-75.13129439,39.99410933,39.99410933,-75.13129439,"2008","Y"
"406",16800,"18","T",2008-11-18 01:49:00,2008-11-17,20:49:00,20,200818082398,"S 48TH ST  /  WARRINGTON AV",300,"Robbery Firearm",-75.21786429,39.94725462,39.94725462,-75.21786429,"2008","Y"
"407",16802,"24","C",2008-06-09 23:11:00,2008-06-09,19:11:00,19,200824049144,"2900 BLOCK KENSINGTON AVE",300,"Robbery Firearm",-75.11969702,39.99302573,39.99302573,-75.11969702,"2008","Y"
"408",16812,"24","P",2008-10-28 03:53:00,2008-10-27,23:53:00,23,200824094508,"3100 BLOCK E ST",400,"Aggravated Assault Firearm",-75.11966804,39.99568078,39.99568078,-75.11966804,"2008","Y"
"409",16818,"25","J",2008-09-03 08:58:00,2008-09-03,04:58:00,4,200825096846,"3000 BLOCK N 05TH ST",300,"Robbery Firearm",-75.13920148,39.99667063,39.99667063,-75.13920149,"2008","Y"
"410",15709,"22","E",2008-11-30 23:03:00,2008-11-30,18:03:00,18,200822083600,"N CARLISLE ST  /  W YORK ST",300,"Robbery Firearm",-75.15643894,39.98948824,39.98948824,-75.15643894,"2008","Y"
"411",15573,"09","R",2008-10-13 23:51:00,2008-10-13,19:51:00,19,200809053671,"N 18TH ST  /  FAIRMOUNT AV",400,"Aggravated Assault Firearm",-75.16696078,39.9671952,39.9671952,-75.16696078,"2008","Y"
"412",16404,"02","O",2008-08-06 18:40:00,2008-08-06,14:40:00,14,200802053471,"500 BLOCK ROSALIE ST",400,"Aggravated Assault Firearm",-75.10233484,40.04251944,40.04251944,-75.10233484,"2008","Y"
"413",16446,"15","C",2008-09-02 13:25:00,2008-09-02,09:25:00,9,200815101168,"4100 BLOCK TORRESDALE AVE",300,"Robbery Firearm",-75.09061372,40.00616325,40.00616325,-75.09061372,"2008","Y"
"414",16448,"15","J",2008-06-21 02:58:00,2008-06-20,22:58:00,22,200815070607,"4100 BLOCK COMLY ST",300,"Robbery Firearm",-75.0649157,40.02406972,40.02406972,-75.0649157,"2008","Y"
"415",16535,"24","J",2008-10-09 04:00:00,2008-10-09,00:00:00,0,200824088523,"2000 BLOCK VICI ST",300,"Robbery Firearm",-75.0934949,40.00451858,40.00451858,-75.0934949,"2008","Y"
"416",15011,"12","Q",2008-06-22 18:45:00,2008-06-22,14:45:00,14,200812054217,"1600 BLOCK S FRAZIER ST",400,"Aggravated Assault Firearm",-75.22783358,39.93808651,39.93808651,-75.22783358,"2008","Y"
"417",15292,"02","R",2008-07-28 23:28:00,2008-07-28,19:28:00,19,200802051328,"700 BLOCK ADAMS AVE",400,"Aggravated Assault Firearm",-75.10643361,40.03267039,40.03267039,-75.10643361,"2008","Y"
"418",15293,"02","R",2008-07-22 11:45:00,2008-07-22,07:45:00,7,200802049838,"700 BLOCK ADAMS AVE",300,"Robbery Firearm",-75.10643361,40.03267039,40.03267039,-75.10643361,"2008","Y"
"419",14448,"12","O",2008-11-25 07:41:00,2008-11-25,02:41:00,2,200812102694,"S 54TH ST  /  WHITBY AV",300,"Robbery Firearm",-75.22957632,39.94531243,39.94531243,-75.22957632,"2008","Y"
"420",14449,"18","K",2008-12-23 16:42:00,2008-12-23,11:42:00,11,200818090840,"S 54TH ST  /  IRVING ST",300,"Robbery Firearm",-75.22366041,39.95611673,39.95611673,-75.22366041,"2008","Y"
"421",15065,"24","N",2008-08-13 21:38:00,2008-08-13,17:38:00,17,200824069896,"1400 BLOCK E BRISTOL ST",400,"Aggravated Assault Firearm",-75.0996941,40.01209242,40.01209242,-75.0996941,"2008","Y"
"422",15068,"22","F",2008-08-27 00:17:00,2008-08-26,20:17:00,20,200822061751,"1800 BLOCK W WILT ST",400,"Aggravated Assault Firearm",-75.16538412,39.98185041,39.98185041,-75.16538412,"2008","Y"
"423",15069,"39","A",2008-07-13 08:04:00,2008-07-13,04:04:00,4,200839049250,"1700 BLOCK W INDIANA AVE",300,"Robbery Firearm",-75.15899859,39.99883619,39.99883619,-75.15899859,"2008","Y"
"424",15086,"19","L",2008-09-22 17:19:00,2008-09-22,13:19:00,13,200819077667,"200 BLOCK N 60TH ST",300,"Robbery Firearm",-75.24011254,39.96506419,39.96506419,-75.24011254,"2008","Y"
"425",14308,"22","S",2008-08-04 13:32:00,2008-08-04,09:32:00,9,200822055717,"2600 BLOCK N 11TH ST",300,"Robbery Firearm",-75.14958912,39.99167461,39.99167461,-75.14958912,"2008","Y"
"426",14467,"25","O",2008-06-22 14:27:00,2008-06-22,10:27:00,10,200825066301,"3600 BLOCK N 11TH ST",400,"Aggravated Assault Firearm",-75.14590477,40.00856981,40.00856981,-75.14590477,"2008","Y"
"427",15095,"25","J",2008-07-05 01:51:00,2008-07-04,21:51:00,21,200825071598,"2900 BLOCK N REESE ST",400,"Aggravated Assault Firearm",-75.13986762,39.99675265,39.99675265,-75.13986762,"2008","Y"
"428",15130,"39","C",2008-06-02 05:51:00,2008-06-02,01:51:00,1,200839037397,"3200 BLOCK N BROAD ST",300,"Robbery Firearm",-75.15292829,40.00160202,40.00160202,-75.15292829,"2008","Y"
"429",14518,"08","I",2008-11-09 00:49:00,2008-11-08,19:49:00,19,200808054489,"10800 BLOCK HAWLEY RD",300,"Robbery Firearm",-74.9870289,40.08081133,40.08081133,-74.9870289,"2008","Y"
"430",14534,"12","J",2008-07-07 06:47:00,2008-07-07,02:47:00,2,200812059582,"6000 BLOCK SPRINGFIELD AVE",400,"Aggravated Assault Firearm",-75.23341787,39.93435957,39.93435957,-75.23341787,"2008","Y"
"431",14550,"15","J",2008-10-11 09:53:00,2008-10-11,05:53:00,5,200815116483,"6100 BLOCK DITMAN ST",400,"Aggravated Assault Firearm",-75.05772894,40.02000458,40.02000458,-75.05772894,"2008","Y"
"432",15182,"02","I",2008-12-03 16:18:00,2008-12-03,11:18:00,11,200802080008,"6600 BLOCK CASTOR AVE",300,"Robbery Firearm",-75.07503545,40.04194923,40.04194923,-75.07503545,"2008","Y"
"433",13728,"39","E",2008-11-06 18:10:00,2008-11-06,13:10:00,13,200839078846,"W PIKE ST  /  GERMANTOWN AVE",400,"Aggravated Assault Firearm",-75.15216573,40.01255004,40.01255004,-75.15216572,"2008","Y"
"434",14604,"08","M",2008-07-29 03:18:00,2008-07-28,23:18:00,23,200808037239,"WELSH RD  /  TOLBUT ST",300,"Robbery Firearm",-75.02801871,40.06073446,40.06073446,-75.02801871,"2008","Y"
"435",13841,"12","E",2008-12-27 03:05:00,2008-12-26,22:05:00,22,200812111777,"2600 BLOCK CARROLL ST",300,"Robbery Firearm",-75.23357369,39.91777306,39.91777305,-75.23357369,"2008","Y"
"436",13844,"14","I",2008-08-27 05:25:00,2008-08-27,01:25:00,1,200814072264,"0 BLOCK W DUVAL ST",300,"Robbery Firearm",-75.18170438,40.04484046,40.04484046,-75.18170438,"2008","Y"
"437",14705,"24","P",2008-09-28 06:38:00,2008-09-28,02:38:00,2,200824085293,"3100 BLOCK E ST",300,"Robbery Firearm",-75.11966804,39.99568078,39.99568078,-75.11966804,"2008","Y"
"438",14903,"26","P",2008-11-05 03:39:00,2008-11-04,22:39:00,22,200826072171,"400 BLOCK W HUNTINGDON ST",300,"Robbery Firearm",-75.13869498,39.99027029,39.99027029,-75.13869498,"2008","Y"
"439",14917,"19","N",2008-09-26 03:48:00,2008-09-25,23:48:00,23,200819078826,"5300 BLOCK LANSDOWNE AVE",300,"Robbery Firearm",-75.22749309,39.97733852,39.97733852,-75.2274931,"2008","Y"
"440",14918,"18","T",2008-08-28 04:59:00,2008-08-28,00:59:00,0,200818062087,"4700 BLOCK SPRINGFIELD",300,"Robbery Firearm",-75.21516414,39.94698745,39.94698745,-75.21516414,"2008","Y"
"441",14746,"35","B",2008-07-01 19:49:00,2008-07-01,15:49:00,15,200835061159,"100 BLOCK E OLNEY AVE",400,"Aggravated Assault Firearm",-75.1214245,40.03529014,40.03529014,-75.1214245,"2008","Y"
"442",14747,"09","G",2008-10-18 14:30:00,2008-10-18,10:30:00,10,200809054577,"1600 BLOCK JOHN F KENNEDY BLVD",300,"Robbery Firearm",-75.16661939,39.95380722,39.95380722,-75.16661939,"2008","Y"
"443",14750,"22","D",2008-12-16 06:11:00,2008-12-16,01:11:00,1,200822086899,"1800 BLOCK W SUSQUEHANNA AVE",300,"Robbery Firearm",-75.16261399,39.98712122,39.98712122,-75.16261399,"2008","Y"
"444",14931,"35","M",2008-09-30 04:38:00,2008-09-30,00:38:00,0,200835092163,"1900 BLOCK NEDRO AVE",300,"Robbery Firearm",-75.15208467,40.04361791,40.04361791,-75.15208467,"2008","Y"
"445",14938,"04","F",2008-06-06 17:26:00,2008-06-06,13:26:00,13,200804024905,"2100 BLOCK S 09TH ST",400,"Aggravated Assault Firearm",-75.1613126,39.92330611,39.92330611,-75.1613126,"2008","Y"
"446",14951,"15","R",2008-11-07 03:32:00,2008-11-06,22:32:00,22,200815126367,"3500 BLOCK CHIPPENDALE AVE",300,"Robbery Firearm",-75.03572844,40.04087236,40.04087236,-75.03572844,"2008","Y"
"447",14762,"24","P",2008-07-31 02:21:00,2008-07-30,22:21:00,22,200824065665,"3100 BLOCK KENSINGTON AVE",300,"Robbery Firearm",-75.11578148,39.99517671,39.99517671,-75.11578148,"2008","Y"
"448",14954,"15","K",2008-12-30 10:41:00,2008-12-30,05:41:00,5,200815145183,"6300 BLOCK FRANKFORD AVE",400,"Aggravated Assault Firearm",-75.05998407,40.02780235,40.02780235,-75.05998407,"2008","Y"
"449",13953,"03","O",2008-06-20 04:10:00,2008-06-20,00:10:00,0,200803022741,"300 BLOCK FITZWATER ST",300,"Robbery Firearm",-75.14816069,39.93890889,39.93890889,-75.14816069,"2008","Y"
"450",19153,"14","L",2008-10-28 20:13:00,2008-10-28,16:13:00,16,200814089239,"GREENE ST  /  W HORTTER ST",300,"Robbery Firearm",-75.1912016,40.04339518,40.04339518,-75.1912016,"2008","Y"
"451",19274,"26","J",2008-12-13 23:13:00,2008-12-13,18:13:00,18,200826080664,"N 02ND ST  /  DIAMOND ST",300,"Robbery Firearm",-75.13685139,39.98215632,39.98215631,-75.13685139,"2008","Y"
"452",20605,"15","K",2008-07-15 20:11:00,2008-07-15,16:11:00,16,200815080995,"1400 BLOCK HOWELL ST",300,"Robbery Firearm",-75.08031416,40.03153764,40.03153764,-75.08031416,"2008","Y"
"453",20619,"19","M",2008-12-15 13:00:00,2008-12-15,08:00:00,8,200819101659,"5900 BLOCK W GIRARD AVE",300,"Robbery Firearm",-75.23745796,39.97015061,39.97015061,-75.23745796,"2008","Y"
"454",20344,"35","F",2008-12-09 00:22:00,2008-12-08,19:22:00,19,200835113084,"N 11TH ST  /  OAK LA",300,"Robbery Firearm",-75.13626623,40.05493779,40.05493779,-75.13626623,"2008","Y"
"455",19555,"06","F",2008-09-06 23:12:00,2008-09-06,19:12:00,19,200806051619,"S JUNIPER ST  /  LOCUST ST",300,"Robbery Firearm",-75.16338504,39.94807421,39.94807421,-75.16338504,"2008","Y"
"456",20636,"02","K",2008-06-28 03:35:00,2008-06-27,23:35:00,23,200802043938,"6500 BLOCK KINDRED ST",300,"Robbery Firearm",-75.07237624,40.04045423,40.04045423,-75.07237623,"2008","Y"
"457",20680,"14","X",2008-07-14 08:55:00,2008-07-14,04:55:00,4,200814058955,"700 BLOCK E CHELTEN AVE",300,"Robbery Firearm",-75.1660877,40.04425255,40.04425255,-75.1660877,"2008","Y"
"458",20484,"15","R",2008-08-03 03:37:00,2008-08-02,23:37:00,23,200815088746,"7300 BLOCK FRANKFORD AVE",400,"Aggravated Assault Firearm",-75.03885993,40.03750219,40.03750219,-75.03885994,"2008","Y"
"459",20514,"08","A",2008-10-26 06:55:00,2008-10-26,02:55:00,2,200808052302,"RHAWN ST  /  JACKSON ST",300,"Robbery Firearm",-75.02615511,40.03688906,40.03688906,-75.02615511,"2008","Y"
"460",20199,"26","U",2008-12-29 18:56:00,2008-12-29,13:56:00,13,200826083920,"E ALBERT ST  /  KENSINGTON AV",300,"Robbery Firearm",-75.12643699,39.98932063,39.98932063,-75.12643699,"2008","Y"
"461",20521,"26","K",2008-08-03 04:59:00,2008-08-03,00:59:00,0,200826050990,"N 03RD ST  /  W HUNTINGDON ST",300,"Robbery Firearm",-75.13769881,39.99013519,39.99013519,-75.13769881,"2008","Y"
"462",20583,"19","L",2008-11-24 20:39:00,2008-11-24,15:39:00,15,200819095894,"N 60TH ST  /  SPRING ST",300,"Robbery Firearm",-75.24537102,39.96415913,39.96415913,-75.24537102,"2008","Y"
"463",19026,"15","H",2008-07-16 19:36:00,2008-07-16,15:36:00,15,200815081367,"MULBERRY ST  /  PRATT ST",300,"Robbery Firearm",-75.07495063,40.01936955,40.01936955,-75.07495063,"2008","Y"
"464",19213,"24","D",2008-12-06 05:48:00,2008-12-06,00:48:00,0,200824105563,"3000 BLOCK CHATHAM ST",300,"Robbery Firearm",-75.11001142,39.98518762,39.98518762,-75.11001142,"2008","Y"
"465",19993,"12","L",2008-09-28 23:48:00,2008-09-28,19:48:00,19,200812086769,"S 57TH ST  /  WHITBY AV",300,"Robbery Firearm",-75.23383131,39.94232564,39.94232564,-75.23383131,"2008","Y"
"466",19995,"22","R",2008-10-02 04:54:00,2008-10-02,00:54:00,0,200822070560,"2600 BLOCK N 34TH ST",300,"Robbery Firearm",-75.18679616,39.99698219,39.99698219,-75.18679616,"2008","Y"
"467",17901,"09","E",2008-06-09 16:10:00,2008-06-09,12:10:00,12,200809031033,"100 BLOCK S 18TH ST",300,"Robbery Firearm",-75.17045211,39.95115591,39.95115591,-75.1704521,"2008","Y"
"468",18526,"39","F",2008-12-26 05:57:00,2008-12-26,00:57:00,0,200839089952,"CLARISSA ST  /  DENNIE ST",400,"Aggravated Assault Firearm",-75.16006813,40.01900419,40.01900418,-75.16006813,"2008","Y"
"469",18555,"14","A",2008-08-20 12:03:00,2008-08-20,08:03:00,8,200814070298,"7100 BLOCK N 20TH ST",300,"Robbery Firearm",-75.15117449,40.06431744,40.06431744,-75.15117449,"2008","Y"
"470",17952,"14","C",2008-07-08 02:43:00,2008-07-07,22:43:00,22,200814057067,"1400 BLOCK E WASHINGTON LN",300,"Robbery Firearm",-75.16545528,40.05955077,40.05955077,-75.16545528,"2008","Y"
"471",18596,"26","C",2008-11-26 02:21:00,2008-11-25,21:21:00,21,200826076781,"CEDAR ST  /  E NORRIS ST",400,"Aggravated Assault Firearm",-75.12740378,39.97685475,39.97685475,-75.12740378,"2008","Y"
"472",17988,"18","F",2008-09-14 05:13:00,2008-09-14,01:13:00,1,200818066552,"4700 BLOCK PINE ST",300,"Robbery Firearm",-75.21635189,39.95231182,39.95231182,-75.21635189,"2008","Y"
"473",17841,"14","S",2008-08-24 05:04:00,2008-08-24,01:04:00,1,200814071480,"3000 BLOCK W CHELTENHAM AVE",300,"Robbery Firearm",-75.16766262,40.07947553,40.07947553,-75.16766261,"2008","Y"
"474",18943,"39","G",2008-10-27 17:39:00,2008-10-27,13:39:00,13,200839076746,"2900 BLOCK N 22ND ST",300,"Robbery Firearm",-75.16689766,39.99869741,39.99869741,-75.16689766,"2008","Y"
"475",18949,"05","C",2008-07-15 10:52:00,2008-07-15,06:52:00,6,200805018070,"500 BLOCK DUPONT ST",400,"Aggravated Assault Firearm",-75.21641816,40.03461411,40.03461411,-75.21641816,"2008","Y"
"476",18950,"05","C",2008-07-15 10:52:00,2008-07-15,06:52:00,6,200805018071,"500 BLOCK DUPONT ST",400,"Aggravated Assault Firearm",-75.21641816,40.03461411,40.03461411,-75.21641816,"2008","Y"
"477",18955,"35","A",2008-11-22 19:48:00,2008-11-22,14:48:00,14,200835108710,"A ST  /  E WELLENS ST",300,"Robbery Firearm",-75.1206241,40.02971116,40.02971115,-75.1206241,"2008","Y"
"478",17876,"22","D",2008-08-19 15:21:00,2008-08-19,11:21:00,11,200822059771,"1400 BLOCK W DAUPHIN ST",300,"Robbery Firearm",-75.15755555,39.98810287,39.98810287,-75.15755555,"2008","Y"
"479",18045,"25","P",2008-11-12 06:00:00,2008-11-12,01:00:00,1,200825126273,"3800 BLOCK N PARK AVE",300,"Robbery Firearm",-75.14961136,40.01068155,40.01068155,-75.14961136,"2008","Y"
"480",17199,"24","P",2008-11-04 14:52:00,2008-11-04,09:52:00,9,200824096698,"200 BLOCK E ALLEGHENY AVE",300,"Robbery Firearm",-75.12733919,39.99830036,39.99830036,-75.12733919,"2008","Y"
"481",18057,"35","F",2008-07-01 02:27:00,2008-06-30,22:27:00,22,200835060936,"N 13TH ST  /  W GODFREY AV",300,"Robbery Firearm",-75.14069024,40.04722428,40.04722428,-75.14069024,"2008","Y"
"482",18696,"04","D",2008-10-01 05:41:00,2008-10-01,01:41:00,1,200804045884,"S 12TH ST  /  MIFFLIN ST",300,"Robbery Firearm",-75.16548541,39.92634258,39.92634257,-75.16548541,"2008","Y"
"483",18331,"12","J",2008-07-22 03:42:00,2008-07-21,23:42:00,23,200812064386,"S 65TH ST  /  KINGSESSING AV",300,"Robbery Firearm",-75.23698885,39.92783017,39.92783017,-75.23698885,"2008","Y"
"484",18162,"24","H",2008-12-11 00:23:00,2008-12-10,19:23:00,19,200824106815,"2000 BLOCK E MADISON",300,"Robbery Firearm",-75.11036682,39.99474151,39.99474151,-75.11036682,"2008","Y"
"485",18183,"39","U",2008-08-23 13:14:00,2008-08-23,09:14:00,9,200839060873,"4500 BLOCK PULASKI AVE",400,"Aggravated Assault Firearm",-75.16391843,40.02099945,40.02099945,-75.16391843,"2008","Y"
"486",18398,"08","O",2008-09-18 06:10:00,2008-09-18,02:10:00,2,200808046222,"3300 BLOCK COMLY RD",300,"Robbery Firearm",-74.98216238,40.0882754,40.0882754,-74.98216238,"2008","Y"
"487",18438,"06","G",2008-09-01 19:28:00,2008-09-01,15:28:00,15,200806050601,"100 BLOCK N 03RD ST",300,"Robbery Firearm",-75.14563272,39.95273458,39.95273458,-75.14563272,"2008","Y"
"488",18247,"22","M",2008-11-14 14:46:00,2008-11-14,09:46:00,9,200822080085,"2100 BLOCK N 22ND ST",400,"Aggravated Assault Firearm",-75.1692363,39.98796818,39.98796818,-75.1692363,"2008","Y"
"489",18449,"12","M",2008-10-21 10:12:00,2008-10-21,06:12:00,6,200812093195,"S 50TH ST  /  WOODLAND AV",300,"Robbery Firearm",-75.21386726,39.93998367,39.93998367,-75.21386726,"2008","Y"
"490",17685,"23","M",2008-12-02 02:40:00,2008-12-01,21:40:00,21,200823055563,"1500 BLOCK N BAILEY ST",300,"Robbery Firearm",-75.1786963,39.97847708,39.97847708,-75.1786963,"2008","Y"
"491",17415,"02","R",2008-11-04 17:57:00,2008-11-04,12:57:00,12,200802073894,"700 BLOCK ADAMS AVE",400,"Aggravated Assault Firearm",-75.10643361,40.03267039,40.03267039,-75.10643361,"2008","Y"
"492",22627,"39","U",2008-11-09 08:33:00,2008-11-09,03:33:00,3,200839079505,"5000 BLOCK GERMANTOWN AVE",300,"Robbery Firearm",-75.16375141,40.02926486,40.02926486,-75.16375141,"2008","Y"
"493",23000,"12","L",2008-08-30 11:52:00,2008-08-30,07:52:00,7,200812077163,"5900 BLOCK BALTIMORE AVE",300,"Robbery Firearm",-75.24177366,39.94530686,39.94530686,-75.24177366,"2008","Y"
"494",22785,"04","D",2008-10-30 05:16:00,2008-10-30,01:16:00,1,200804050802,"1300 BLOCK MORRIS ST",300,"Robbery Firearm",-75.16651536,39.9289925,39.9289925,-75.16651536,"2008","Y"
"495",22842,"17","L",2008-10-31 19:11:00,2008-10-31,15:11:00,15,200817053758,"2700 BLOCK DICKINSON ST",400,"Aggravated Assault Firearm",-75.18941873,39.93443843,39.93443843,-75.18941873,"2008","Y"
"496",23586,"02","R",2008-07-22 04:46:00,2008-07-22,00:46:00,0,200802049802,"700 BLOCK ADAMS AVE",300,"Robbery Firearm",-75.10643361,40.03267039,40.03267039,-75.10643361,"2008","Y"
"497",22914,"02","M",2008-06-14 03:21:00,2008-06-13,23:21:00,23,200802040114,"6300 BLOCK BINGHAM ST",300,"Robbery Firearm",-75.0936633,40.04849792,40.04849792,-75.0936633,"2008","Y"
"498",22444,"24","K",2008-10-27 01:42:00,2008-10-26,21:42:00,21,200824094248,"3500 BLOCK KENSINGTON AVE",400,"Aggravated Assault Firearm",-75.10644553,40.00033176,40.00033176,-75.10644553,"2008","Y"
"499",22452,"24","P",2008-11-13 08:15:00,2008-11-13,03:15:00,3,200824099290,"600 BLOCK E ALLEGHENY AVE",300,"Robbery Firearm",-75.11933085,39.99726411,39.99726411,-75.11933085,"2008","Y"
"500",22502,"24","M",2008-09-14 04:45:00,2008-09-14,00:45:00,0,200824080565,"2900 BLOCK FRANKFORD AVE",400,"Aggravated Assault Firearm",-75.11771331,39.98975702,39.98975702,-75.11771331,"2008","Y"
"501",22527,"26","R",2008-10-09 06:29:00,2008-10-09,02:29:00,2,200826066282,"600 BLOCK W SUSQUEHANNA AVE",300,"Robbery Firearm",-75.14415675,39.98473346,39.98473346,-75.14415675,"2008","Y"
"502",22543,"25","O",2008-06-29 03:54:00,2008-06-28,23:54:00,23,200825069154,"3400 BLOCK N 11TH ST",400,"Aggravated Assault Firearm",-75.14690386,40.00399479,40.00399479,-75.14690386,"2008","Y"
"503",22690,"24","O",2008-11-29 05:05:00,2008-11-29,00:05:00,0,200824103544,"3400 BLOCK KENSINGTON AVE",300,"Robbery Firearm",-75.10814687,39.99936673,39.99936673,-75.10814687,"2008","Y"
"504",22563,"25","D",2008-11-04 22:21:00,2008-11-04,17:21:00,17,200825123183,"700 BLOCK E WESTMORELAND ST",400,"Aggravated Assault Firearm",-75.11705717,39.99861053,39.99861053,-75.11705717,"2008","Y"
"505",22591,"24","H",2008-09-24 05:09:00,2008-09-24,01:09:00,1,200824083898,"3400 BLOCK KENSINGTON AVE",300,"Robbery Firearm",-75.10814687,39.99936673,39.99936673,-75.10814687,"2008","Y"
"506",20960,"12","Q",2008-07-17 07:10:00,2008-07-17,03:10:00,3,200812062828,"S 56TH ST  /  BELMAR ST",300,"Robbery Firearm",-75.22735108,39.93919378,39.93919378,-75.22735108,"2008","Y"
"507",20966,"25","O",2008-08-07 14:13:00,2008-08-07,10:13:00,10,200825085601,"3600 BLOCK GERMANTOWN AVE",300,"Robbery Firearm",-75.15075887,40.00756131,40.00756131,-75.15075887,"2008","Y"
"508",20969,"15","B",2008-09-01 11:02:00,2008-09-01,07:02:00,7,200815100770,"5000 BLOCK WORTH ST",300,"Robbery Firearm",-75.07262616,40.01074161,40.01074161,-75.07262616,"2008","Y"
"509",21380,"22","J",2008-08-04 09:21:00,2008-08-04,05:21:00,5,200822055709,"2300 BLOCK DIAMOND ST",300,"Robbery Firearm",-75.17198161,39.98671458,39.98671458,-75.17198161,"2008","Y"
"510",21381,"22","M",2008-08-02 07:58:00,2008-08-02,03:58:00,3,200822055181,"2300 BLOCK W DIAMOND ST",300,"Robbery Firearm",-75.17198161,39.98671458,39.98671458,-75.17198161,"2008","Y"
"511",21384,"24","P",2008-12-11 01:10:00,2008-12-10,20:10:00,20,200824106807,"3100 BLOCK E ST",300,"Robbery Firearm",-75.11966804,39.99568078,39.99568078,-75.11966804,"2008","Y"
"512",22257,"16","J",2008-07-13 07:38:00,2008-07-13,03:38:00,3,200816037967,"4000 BLOCK LANCASTER AVE",400,"Aggravated Assault Firearm",-75.20387526,39.96409824,39.96409824,-75.20387526,"2008","Y"
"513",22279,"24","O",2008-09-08 00:54:00,2008-09-07,20:54:00,20,200824078568,"3400 BLOCK H ST",400,"Aggravated Assault Firearm",-75.11259826,39.99955833,39.99955833,-75.11259826,"2008","Y"
"514",21236,"35","S",2008-08-05 01:26:00,2008-08-04,21:26:00,21,200835072988,"1000 BLOCK W CLARKSON AVE",400,"Aggravated Assault Firearm",-75.13816607,40.03581554,40.03581554,-75.13816607,"2008","Y"
"515",21245,"18","F",2008-11-10 23:39:00,2008-11-10,18:39:00,18,200818080680,"4500 BLOCK BALTIMORE AVE",300,"Robbery Firearm",-75.21398674,39.9489649,39.9489649,-75.21398674,"2008","Y"
"516",22045,"39","P",2008-11-05 12:44:00,2008-11-05,07:44:00,7,200839078600,"4700 BLOCK WISSAHICKON AVE",300,"Robbery Firearm",-75.17220842,40.01750274,40.01750274,-75.17220842,"2008","Y"
"517",22048,"24","P",2008-07-30 06:36:00,2008-07-30,02:36:00,2,200824065415,"2900 BLOCK ROSEHILL ST",300,"Robbery Firearm",-75.12491902,39.99328723,39.99328723,-75.12491902,"2008","Y"
"518",22283,"25","E",2008-12-07 09:34:00,2008-12-07,04:34:00,4,200825135302,"4600 BLOCK D ST",300,"Robbery Firearm",-75.11640696,40.01891852,40.01891852,-75.11640696,"2008","Y"
"519",22064,"06","J",2008-12-05 14:36:00,2008-12-05,09:36:00,9,200806068397,"1100 BLOCK MARKET ST",300,"Robbery Firearm",-75.15830916,39.95172287,39.95172287,-75.15830915,"2008","Y"
"520",22073,"35","B",2008-08-30 16:28:00,2008-08-30,12:28:00,12,200835082048,"5800 BLOCK N LAWRENCE ST",400,"Aggravated Assault Firearm",-75.12850841,40.04093553,40.04093553,-75.12850841,"2008","Y"
"521",21313,"12","M",2008-08-05 04:13:00,2008-08-05,00:13:00,0,200812068984,"S 53RD ST  /  SAYBROOK AVE",400,"Aggravated Assault Firearm",-75.2172568,39.93704697,39.93704697,-75.2172568,"2008","Y"
"522",21457,"26","P",2008-12-05 17:12:00,2008-12-05,12:12:00,12,200826078838,"400 BLOCK W LEHIGH AVE",300,"Robbery Firearm",-75.13926316,39.99197866,39.99197866,-75.13926316,"2008","Y"
"523",22111,"09","G",2008-11-11 17:58:00,2008-11-11,12:58:00,12,200809058776,"1400 BLOCK JOHN F KENNEDY BLVD",300,"Robbery Firearm",-75.16390471,39.95346274,39.95346274,-75.16390471,"2008","Y"
"524",21320,"12","G",2008-12-11 03:22:00,2008-12-10,22:22:00,22,200812107182,"S 65TH ST  /  BELMAR ST",300,"Robbery Firearm",-75.2408665,39.92901813,39.92901813,-75.2408665,"2008","Y"
"525",21501,"24","P",2008-10-26 04:26:00,2008-10-26,00:26:00,0,200824094045,"3100 BLOCK E ST",400,"Aggravated Assault Firearm",-75.11966804,39.99568078,39.99568078,-75.11966804,"2008","Y"
"526",22142,"18","P",2008-08-19 04:51:00,2008-08-19,00:51:00,0,200818059754,"5700 BLOCK CHESTNUT ST",300,"Robbery Firearm",-75.23519046,39.95972048,39.95972048,-75.23519046,"2008","Y"
"527",21531,"03","I",2008-11-09 03:41:00,2008-11-08,22:41:00,22,200803041247,"S 09TH ST  /  FITZWATER ST",300,"Robbery Firearm",-75.15745656,39.94077225,39.94077225,-75.15745656,"2008","Y"
"528",22148,"24","M",2008-12-23 05:50:00,2008-12-23,00:50:00,0,200824110036,"1900 BLOCK E ALLEGHENY AVE",300,"Robbery Firearm",-75.11221484,39.99518235,39.99518235,-75.11221484,"2008","Y"
"529",22150,"12","H",2008-09-03 20:14:00,2008-09-03,16:14:00,16,200812078473,"6500 BLOCK WOODLAND AVE",300,"Robbery Firearm",-75.23433006,39.92558225,39.92558225,-75.23433006,"2008","Y"
"530",22337,"25","E",2008-11-01 17:08:00,2008-11-01,13:08:00,13,200825121795,"4800 BLOCK A ST",400,"Aggravated Assault Firearm",-75.12209696,40.02287362,40.02287362,-75.12209696,"2008","Y"
"531",22338,"15","D",2008-12-14 10:54:00,2008-12-14,05:54:00,5,200815139748,"4200 BLOCK KENSINGTON AVE",400,"Aggravated Assault Firearm",-75.09018449,40.00926469,40.00926469,-75.09018449,"2008","Y"
