"","objectid","dc_dist","psa","dispatch_date_time","dispatch_date","dispatch_time","hour","dc_key","location_block","ucr_general","text_general_code","point_x","point_y","lat","lng","year","GunViolence"
"1",2014,"01","2",2012-02-04 18:28:00,2012-02-04,13:28:00,13,201201004881,"2700 BLOCK S 19TH ST",300,"Robbery Firearm",-75.17931568,39.91778802,39.91778802,-75.17931569,"2012","Y"
"2",1869,"15","1",2012-03-21 05:16:00,2012-03-21,01:16:00,1,201215026368,"1300 BLOCK SELLERS ST",300,"Robbery Firearm",-75.09114216,40.01650221,40.01650221,-75.09114216,"2012","Y"
"3",9762,"12","2",2012-04-17 05:45:00,2012-04-17,01:45:00,1,201212027117,"6500 BLOCK BELMAR ST",300,"Robbery Firearm",-75.2408665,39.92901813,39.92901813,-75.2408665,"2012","Y"
"4",9566,"12","1",2012-04-08 01:38:00,2012-04-07,21:38:00,21,201212024602,"7700 BLOCK LINDBERGH BLVD",300,"Robbery Firearm",-75.24061021,39.90420003,39.90420003,-75.24061022,"2012","Y"
"5",9459,"16","2",2012-01-22 23:06:00,2012-01-22,18:06:00,18,201216003124,"600 BLOCK N PRESTON ST",300,"Robbery Firearm",-75.20411412,39.96387919,39.96387919,-75.20411411,"2012","Y"
"6",10961,"35","3",2012-02-04 23:09:00,2012-02-04,18:09:00,18,201235009400,"1700 BLOCK WIDENER PL",300,"Robbery Firearm",-75.14852858,40.04422939,40.04422939,-75.14852858,"2012","Y"
"7",10964,"12","4",2012-03-03 03:14:00,2012-03-02,22:14:00,22,201212015072,"5500 BLOCK HADFIELD ST",400,"Aggravated Assault Firearm",-75.23142007,39.94263178,39.94263178,-75.23142007,"2012","Y"
"8",11138,"06","2",2012-05-12 22:45:00,2012-05-12,18:45:00,18,201206022974,"1000 BLOCK ARCH ST",400,"Aggravated Assault Firearm",-75.15786607,39.95375754,39.95375754,-75.15786607,"2012","Y"
"9",10503,"16","2",2012-01-18 01:14:00,2012-01-17,20:14:00,20,201216002388,"100 BLOCK N 51ST ST",300,"Robbery Firearm",-75.22224918,39.96285133,39.96285133,-75.22224918,"2012","Y"
"10",17743,"14","2",2012-01-03 00:28:00,2012-01-02,19:28:00,19,201214000436,"0 BLOCK HERMAN ST",300,"Robbery Firearm",-75.17913156,40.04107435,40.04107435,-75.17913156,"2012","Y"
"11",24471,"15","1",2012-05-14 04:26:00,2012-05-14,00:26:00,0,201215044611,"1600 BLOCK MARGARET ST",300,"Robbery Firearm",-75.08236669,40.01607731,40.01607731,-75.08236669,"2012","Y"
"12",39442,"12","3",2012-01-13 18:17:00,2012-01-13,13:17:00,13,201212002902,"2400 BLOCK S 62ND ST",400,"Aggravated Assault Firearm",-75.22701598,39.92532631,39.92532631,-75.22701598,"2012","Y"
"13",45518,"26","1",2012-06-26 04:15:00,2012-06-26,00:15:00,0,201226033992,"100 BLOCK W DAUPHIN ST",400,"Aggravated Assault Firearm",-75.13324921,39.98496002,39.98496002,-75.13324921,"2012","Y"
"14",52844,"26","1",2012-06-26 03:44:00,2012-06-25,23:44:00,23,201226033991,"100 BLOCK W DAUPHIN ST",400,"Aggravated Assault Firearm",-75.13324921,39.98496002,39.98496002,-75.13324921,"2012","Y"
"15",68746,"16","1",2012-12-30 02:16:00,2012-12-29,21:16:00,21,201216053792,"3800 BLOCK WYALUSING AVE",400,"Aggravated Assault Firearm",-75.19914247,39.97271614,39.97271614,-75.19914247,"2012","Y"
"16",69415,"35","3",2012-07-16 06:05:00,2012-07-16,02:05:00,2,201235055823,"6300 BLOCK OGONTZ AVE",300,"Robbery Firearm",-75.15047872,40.0500803,40.0500803,-75.15047872,"2012","Y"
"17",68365,"35","3",2012-09-06 02:48:00,2012-09-05,22:48:00,22,201235069862,"6300 BLOCK OGONTZ AVE",300,"Robbery Firearm",-75.15047872,40.0500803,40.0500803,-75.15047872,"2012","Y"
"18",68907,"19","2",2012-09-26 04:24:00,2012-09-26,00:24:00,0,201219080380,"6000 BLOCK SUMMER ST",300,"Robbery Firearm",-75.23993384,39.96589964,39.96589964,-75.23993384,"2012","Y"
"19",68912,"17","2",2012-12-09 05:49:00,2012-12-09,00:49:00,0,201217057591,"2700 BLOCK TASKER ST",400,"Aggravated Assault Firearm",-75.18969035,39.9332367,39.9332367,-75.18969035,"2012","Y"
"20",68923,"18","1",2012-07-11 05:09:00,2012-07-11,01:09:00,1,201218040161,"5700 BLOCK CHESTNUT ST",400,"Aggravated Assault Firearm",-75.23644695,39.95987835,39.95987835,-75.23644695,"2012","Y"
"21",68516,"19","1",2012-10-30 16:00:00,2012-10-30,12:00:00,12,201219091227,"1700 BLOCK N 62ND ST",400,"Aggravated Assault Firearm",-75.24414151,39.97852649,39.97852648,-75.24414151,"2012","Y"
"22",68614,"02","3",2012-10-17 16:42:00,2012-10-17,12:42:00,12,201202070448,"7200 BLOCK BUSTLETON AV",300,"Robbery Firearm",-75.06071693,40.04537392,40.04537392,-75.06071693,"2012","Y"
"23",68644,"12","4",2012-07-15 06:12:00,2012-07-15,02:12:00,2,201212052126,"5500 BLOCK CHESTER AVE",300,"Robbery Firearm",-75.22519005,39.93809775,39.93809774,-75.22519004,"2012","Y"
"24",68766,"35","3",2012-10-03 18:27:00,2012-10-03,14:27:00,14,201235077435,"1700 BLOCK W OLNEY AVE",300,"Robbery Firearm",-75.1499904,40.03898047,40.03898047,-75.1499904,"2012","Y"
"25",68802,"39","2",2012-11-30 13:55:00,2012-11-30,08:55:00,8,201239079448,"3800 BLOCK N 18TH ST",400,"Aggravated Assault Firearm",-75.15700748,40.01277773,40.01277773,-75.15700748,"2012","Y"
"26",68714,"35","3",2012-07-07 15:33:00,2012-07-07,11:33:00,11,201235053372,"6400 BLOCK N NORWOOD ST",400,"Aggravated Assault Firearm",-75.15628733,40.05189481,40.05189481,-75.15628733,"2012","Y"
"27",68731,"06","3",2012-10-13 12:40:00,2012-10-13,08:40:00,8,201206050889,"500 BLOCK CHESTNUT ST",300,"Robbery Firearm",-75.1507699,39.94923299,39.94923299,-75.1507699,"2012","Y"
"28",67390,"12","2",2012-12-22 22:19:00,2012-12-22,17:19:00,17,201212094612,"7100 BLOCK GREENWAY AV",300,"Robbery Firearm",-75.2455789,39.91960967,39.91960967,-75.2455789,"2012","Y"
"29",67642,"17","3",2012-06-22 05:10:00,2012-06-22,01:10:00,1,201217029893,"1200 BLOCK S 17TH ST",300,"Robbery Firearm",-75.17212564,39.93603874,39.93603874,-75.17212564,"2012","Y"
"30",67404,"39","1",2012-08-19 07:05:00,2012-08-19,03:05:00,3,201239056789,"3100 BLOCK N PATTON ST",300,"Robbery Firearm",-75.1813202,40.00373968,40.00373968,-75.1813202,"2012","Y"
"31",67684,"02","3",2012-10-25 14:49:00,2012-10-25,10:49:00,10,201202072310,"2400 BLOCK RHAWN ST",400,"Aggravated Assault Firearm",-75.04856687,40.05767753,40.05767753,-75.04856687,"2012","Y"
"32",67724,"35","1",2012-07-17 09:13:00,2012-07-17,05:13:00,5,201235056109,"200 BLOCK W NEDRO AV",400,"Aggravated Assault Firearm",-75.12417934,40.04037206,40.04037206,-75.12417934,"2012","Y"
"33",67247,"24","2",2012-07-03 14:15:00,2012-07-03,10:15:00,10,201224058250,"2800 BLOCK N SWANSON ST",300,"Robbery Firearm",-75.12912892,39.99229955,39.99229955,-75.12912892,"2012","Y"
"34",67262,"25","2",2012-08-09 04:09:00,2012-08-09,00:09:00,0,201225065334,"4100 BLOCK WHITAKER AVE",400,"Aggravated Assault Firearm",-75.11944224,40.01303513,40.01303513,-75.11944224,"2012","Y"
"35",72405,"25","3",2012-11-26 01:59:00,2012-11-25,20:59:00,20,201225098182,"2700 BLOCK GERMANTOWN AVE",300,"Robbery Firearm",-75.14676606,39.99350262,39.99350262,-75.14676606,"2012","Y"
"36",72406,"02","2",2012-07-01 01:40:00,2012-06-30,21:40:00,21,201202045477,"5100 BLOCK F ST",400,"Aggravated Assault Firearm",-75.10972747,40.02986218,40.02986218,-75.10972747,"2012","Y"
"37",69762,"18","2",2012-12-20 23:21:00,2012-12-20,18:21:00,18,201218073999,"4900 BLOCK WALTON AV",300,"Robbery Firearm",-75.22108965,39.9490358,39.9490358,-75.22108965,"2012","Y"
"38",69763,"09","3",2012-10-13 03:42:00,2012-10-12,23:42:00,23,201209044577,"2200 BLOCK POPLAR ST",300,"Robbery Firearm",-75.17436929,39.97204414,39.97204414,-75.17436929,"2012","Y"
"39",69764,"22","1",2012-10-27 04:24:00,2012-10-27,00:24:00,0,201222091363,"1900 BLOCK MORSE ST",300,"Robbery Firearm",-75.16542627,39.98165073,39.98165073,-75.16542627,"2012","Y"
"40",69526,"06","1",2012-07-26 04:47:00,2012-07-26,00:47:00,0,201206036544,"700 BLOCK GREEN ST",400,"Aggravated Assault Firearm",-75.1504505,39.96233896,39.96233896,-75.1504505,"2012","Y"
"41",69810,"02","1",2012-10-16 02:40:00,2012-10-15,22:40:00,22,201202070058,"6000 BLOCK AGUSTA ST",300,"Robbery Firearm",-75.0850386,40.03799278,40.03799278,-75.0850386,"2012","Y"
"42",69831,"02","3",2012-11-08 00:37:00,2012-11-07,19:37:00,19,201202075259,"2300 BLOCK COTTMAN AV",300,"Robbery Firearm",-75.059939,40.04776041,40.04776041,-75.059939,"2012","Y"
"43",69746,"02","1",2012-09-05 09:33:00,2012-09-05,05:33:00,5,201202060480,"6400 BLOCK CASTOR AVE",300,"Robbery Firearm",-75.07739755,40.0394735,40.0394735,-75.07739755,"2012","Y"
"44",75717,"25","1",2012-08-19 05:08:00,2012-08-19,01:08:00,1,201225068355,"2700 BLOCK N 11TH ST",300,"Robbery Firearm",-75.14908783,39.99396794,39.99396794,-75.14908783,"2012","Y"
"45",76121,"17","2",2012-12-09 04:32:00,2012-12-08,23:32:00,23,201217057588,"2700 BLOCK TASKER ST",400,"Aggravated Assault Firearm",-75.18969035,39.9332367,39.9332367,-75.18969035,"2012","Y"
"46",75077,"02","3",2012-07-08 01:50:00,2012-07-07,21:50:00,21,201202047143,"7400 BLOCK OXFORD AV",300,"Robbery Firearm",-75.08351742,40.06376591,40.06376591,-75.08351742,"2012","Y"
"47",75162,"35","1",2012-08-14 03:07:00,2012-08-13,23:07:00,23,201235063644,"1800 BLOCK ROSELYN ST",300,"Robbery Firearm",-75.15015055,40.04566793,40.04566793,-75.15015055,"2012","Y"
"48",75888,"15","1",2012-07-21 07:16:00,2012-07-21,03:16:00,3,201215069816,"4400 BLOCK PAUL ST",300,"Robbery Firearm",-75.08619083,40.01188862,40.01188862,-75.08619083,"2012","Y"
"49",76210,"26","3",2012-11-10 06:58:00,2012-11-10,01:58:00,1,201226058340,"2600 BLOCK ALMOND ST",300,"Robbery Firearm",-75.11723053,39.97849002,39.97849001,-75.11723053,"2012","Y"
"50",76263,"18","2",2012-07-06 02:14:00,2012-07-05,22:14:00,22,201218038968,"200 BLOCK S 50TH ST",300,"Robbery Firearm",-75.22168918,39.95586342,39.95586342,-75.22168918,"2012","Y"
"51",75283,"18","3",2012-10-24 06:23:00,2012-10-24,02:23:00,2,201218062972,"4600 BLOCK WALNUT ST",300,"Robbery Firearm",-75.21365843,39.95549155,39.95549155,-75.21365843,"2012","Y"
"52",75286,"18","2",2012-06-17 03:01:00,2012-06-16,23:01:00,23,201218034737,"5500 BLOCK BALTIMORE AVE",300,"Robbery Firearm",-75.2336072,39.94736026,39.94736026,-75.2336072,"2012","Y"
"53",74743,"03","1",2012-06-11 04:27:00,2012-06-11,00:27:00,0,201203038185,"600 BLOCK LOMBARD ST",300,"Robbery Firearm",-75.15369672,39.94322764,39.94322764,-75.15369672,"2012","Y"
"54",74754,"18","1",2012-06-25 01:46:00,2012-06-24,21:46:00,21,201218036601,"6000 BLOCK IRVING ST",400,"Aggravated Assault Firearm",-75.24373453,39.95746208,39.95746208,-75.24373453,"2012","Y"
"55",74755,"18","1",2012-06-25 01:46:00,2012-06-24,21:46:00,21,201218036602,"6000 BLOCK IRVING ST",400,"Aggravated Assault Firearm",-75.24373453,39.95746208,39.95746208,-75.24373453,"2012","Y"
"56",76013,"19","2",2012-09-19 14:54:00,2012-09-19,10:54:00,10,201219078099,"0 BLOCK N ITHAN ST",400,"Aggravated Assault Firearm",-75.23322541,39.96265304,39.96265304,-75.2332254,"2012","Y"
"57",76026,"02","1",2012-07-30 15:03:00,2012-07-30,11:03:00,11,201202051835,"5500 BLOCK MIRIAM RD",300,"Robbery Firearm",-75.09084845,40.02968472,40.02968472,-75.09084845,"2012","Y"
"58",76030,"39","2",2012-08-25 09:10:00,2012-08-25,05:10:00,5,201239058232,"3600 BLOCK N 17TH ST",300,"Robbery Firearm",-75.15622617,40.00903503,40.00903503,-75.15622617,"2012","Y"
"59",74778,"02","1",2012-07-19 00:49:00,2012-07-18,20:49:00,20,201202049499,"5500 BLOCK MIRIAM RD",300,"Robbery Firearm",-75.09084845,40.02968472,40.02968472,-75.09084845,"2012","Y"
"60",74963,"12","4",2012-08-05 06:39:00,2012-08-05,02:39:00,2,201212057988,"5600 BLOCK BROOMALL ST",400,"Aggravated Assault Firearm",-75.23432306,39.94275013,39.94275012,-75.23432306,"2012","Y"
"61",74980,"19","1",2012-11-10 17:05:00,2012-11-10,12:05:00,12,201219094809,"1900 BLOCK N 63RD ST",300,"Robbery Firearm",-75.24737256,39.9850622,39.9850622,-75.24737256,"2012","Y"
"62",75741,"24","1",2012-09-10 06:05:00,2012-09-10,02:05:00,2,201224081104,"3500 BLOCK PENHURST ST",300,"Robbery Firearm",-75.11388731,40.00130641,40.00130641,-75.11388731,"2012","Y"
"63",75039,"22","1",2012-07-12 01:31:00,2012-07-11,21:31:00,21,201222057699,"2200 BLOCK N BROAD ST",400,"Aggravated Assault Firearm",-75.15627807,39.98629271,39.98629271,-75.15627807,"2012","Y"
"64",75808,"24","2",2012-08-07 03:53:00,2012-08-06,23:53:00,23,201224070062,"2000 BLOCK E CAMBRIA ST",400,"Aggravated Assault Firearm",-75.11839459,39.99053763,39.99053763,-75.11839459,"2012","Y"
"65",74334,"25","1",2012-10-03 01:21:00,2012-10-02,21:21:00,21,201225082074,"600 BLOCK W VENANGO ST",400,"Aggravated Assault Firearm",-75.14083567,40.00628781,40.00628781,-75.14083567,"2012","Y"
"66",73741,"18","2",2012-07-20 02:37:00,2012-07-19,22:37:00,22,201218041967,"5600 BLOCK PEMBERTON ST",400,"Aggravated Assault Firearm",-75.23496835,39.95090866,39.95090866,-75.23496835,"2012","Y"
"67",73622,"19","1",2012-12-23 17:16:00,2012-12-23,12:16:00,12,201219107046,"6700 BLOCK LEBANON AV",400,"Aggravated Assault Firearm",-75.25394667,39.97587008,39.97587008,-75.25394667,"2012","Y"
"68",73837,"26","3",2012-11-21 11:44:00,2012-11-21,06:44:00,6,201226060326,"1900 BLOCK E YORK ST",300,"Robbery Firearm",-75.13106471,39.98532641,39.98532641,-75.13106471,"2012","Y"
"69",73064,"03","3",2012-06-03 02:39:00,2012-06-02,22:39:00,22,201203036034,"1700 BLOCK S 11TH ST",300,"Robbery Firearm",-75.16345839,39.92818193,39.92818193,-75.16345839,"2012","Y"
"70",73065,"35","3",2012-06-20 23:25:00,2012-06-20,19:25:00,19,201235048522,"4900 BLOCK N 20TH ST",300,"Robbery Firearm",-75.15675637,40.02888725,40.02888725,-75.15675637,"2012","Y"
"71",73389,"03","3",2012-09-12 16:03:00,2012-09-12,12:03:00,12,201203059457,"2000 BLOCK S BROAD ST",400,"Aggravated Assault Firearm",-75.16962994,39.92438132,39.92438132,-75.16962994,"2012","Y"
"72",73403,"39","3",2012-09-18 07:10:00,2012-09-18,03:10:00,3,201239063775,"2600 BLOCK W STERNER ST",300,"Robbery Firearm",-75.17384882,39.99692064,39.99692064,-75.17384882,"2012","Y"
"73",73413,"16","2",2012-10-16 01:36:00,2012-10-15,21:36:00,21,201216044195,"0 BLOCK FARSON ST",300,"Robbery Firearm",-75.22191129,39.95963518,39.95963518,-75.22191129,"2012","Y"
"74",73414,"08","1",2012-12-15 00:51:00,2012-12-14,19:51:00,19,201208051433,"8800 BLOCK FRANKFORD AV",300,"Robbery Firearm",-75.01015162,40.05061735,40.05061735,-75.01015162,"2012","Y"
"75",78883,"19","3",2012-09-28 05:50:00,2012-09-28,01:50:00,1,201219081001,"5700 BLOCK STEWART ST",300,"Robbery Firearm",-75.23554478,39.97764989,39.97764989,-75.23554478,"2012","Y"
"76",78903,"12","1",2012-07-02 00:33:00,2012-07-01,20:33:00,20,201212048631,"2800 BLOCK S 82ND ST",300,"Robbery Firearm",-75.2468511,39.89822686,39.89822686,-75.2468511,"2012","Y"
"77",78944,"18","1",2012-06-25 00:58:00,2012-06-24,20:58:00,20,201218036603,"6000 BLOCK IRVING ST",400,"Aggravated Assault Firearm",-75.24373453,39.95746208,39.95746208,-75.24373453,"2012","Y"
"78",78964,"18","2",2012-06-04 05:50:00,2012-06-04,01:50:00,1,201218031901,"4900 BLOCK WALTON AVE",300,"Robbery Firearm",-75.22108965,39.9490358,39.9490358,-75.22108965,"2012","Y"
"79",78969,"25","3",2012-09-01 06:22:00,2012-09-01,02:22:00,2,201225072161,"2900 BLOCK MUTTER ST",400,"Aggravated Assault Firearm",-75.13269461,39.99428996,39.99428996,-75.1326946,"2012","Y"
"80",79010,"25","2",2012-10-22 13:59:00,2012-10-22,09:59:00,9,201225088239,"4500 BLOCK D ST",300,"Robbery Firearm",-75.11659723,40.01736536,40.01736536,-75.11659723,"2012","Y"
"81",79013,"24","1",2012-11-26 23:08:00,2012-11-26,18:08:00,18,201224104693,"900 BLOCK E TIOGA ST",300,"Robbery Firearm",-75.11227274,40.00110083,40.00110083,-75.11227274,"2012","Y"
"82",79032,"15","1",2012-11-23 02:18:00,2012-11-22,21:18:00,21,201215113315,"1600 BLOCK HAWORTH ST",300,"Robbery Firearm",-75.07992131,40.02084236,40.02084236,-75.07992131,"2012","Y"
"83",79039,"12","1",2012-07-11 13:48:00,2012-07-11,09:48:00,9,201212051147,"2200 BLOCK ISLAND AVE",300,"Robbery Firearm",-75.24631047,39.91718536,39.91718536,-75.24631047,"2012","Y"
"84",79093,"12","4",2012-08-05 05:33:00,2012-08-05,01:33:00,1,201212057968,"5600 BLOCK BROOMALL ST",400,"Aggravated Assault Firearm",-75.23432306,39.94275013,39.94275012,-75.23432306,"2012","Y"
"85",78477,"02","1",2012-07-28 03:12:00,2012-07-27,23:12:00,23,201202051339,"900 BLOCK PRATT ST",300,"Robbery Firearm",-75.09302432,40.03089709,40.03089709,-75.09302432,"2012","Y"
"86",79247,"25","2",2012-07-31 16:27:00,2012-07-31,12:27:00,12,201225062696,"4300 BLOCK N BODINE ST",300,"Robbery Firearm",-75.1313933,40.01619928,40.01619928,-75.1313933,"2012","Y"
"87",76897,"02","1",2012-07-06 02:54:00,2012-07-05,22:54:00,22,201202046674,"6000 BLOCK CASTOR AV",400,"Aggravated Assault Firearm",-75.0813806,40.035322,40.035322,-75.0813806,"2012","Y"
"88",83349,"26","3",2012-06-16 23:03:00,2012-06-16,19:03:00,19,201226032297,"2500 BLOCK EMERALD ST",300,"Robbery Firearm",-75.12617061,39.98647099,39.98647099,-75.12617061,"2012","Y"
"89",83369,"08","1",2012-09-22 22:54:00,2012-09-22,18:54:00,18,201208039831,"8000 BLOCK FRANKFORD AVE",400,"Aggravated Assault Firearm",-75.02825877,40.04137293,40.04137293,-75.02825877,"2012","Y"
"90",83127,"35","2",2012-10-09 00:30:00,2012-10-08,20:30:00,20,201235078958,"5100 BLOCK ARBOR ST",300,"Robbery Firearm",-75.11684915,40.02881233,40.02881233,-75.11684915,"2012","Y"
"91",82840,"19","2",2012-08-23 17:39:00,2012-08-23,13:39:00,13,201219069597,"6100 BLOCK VINE ST",400,"Aggravated Assault Firearm",-75.24244555,39.96691353,39.96691353,-75.24244555,"2012","Y"
"92",83225,"15","1",2012-06-28 19:40:00,2012-06-28,15:40:00,15,201215061366,"4500 BLOCK MILNOR ST",400,"Aggravated Assault Firearm",-75.07775119,40.00539225,40.00539225,-75.07775119,"2012","Y"
"93",83231,"15","3",2012-07-31 17:50:00,2012-07-31,13:50:00,13,201215073621,"7400 BLOCK EDMUND ST",300,"Robbery Firearm",-75.03118096,40.03003646,40.03003646,-75.03118096,"2012","Y"
"94",82920,"25","3",2012-09-28 23:42:00,2012-09-28,19:42:00,19,201225080641,"600 BLOCK E TIOGA ST",400,"Aggravated Assault Firearm",-75.11741572,40.00175858,40.00175858,-75.11741572,"2012","Y"
"95",83273,"22","3",2012-06-21 18:15:00,2012-06-21,14:15:00,14,201222051214,"1700 BLOCK N 13TH ST",400,"Aggravated Assault Firearm",-75.15538756,39.97994521,39.97994521,-75.15538756,"2012","Y"
"96",80229,"19","1",2012-11-04 21:24:00,2012-11-04,16:24:00,16,201219093199,"7500 BLOCK CITY AVE",300,"Robbery Firearm",-75.26927221,39.98017961,39.98017961,-75.26927221,"2012","Y"
"97",80001,"03","3",2012-07-12 05:24:00,2012-07-12,01:24:00,1,201203045449,"1300 BLOCK ELLSWORTH ST",300,"Robbery Firearm",-75.1662581,39.93662097,39.93662097,-75.1662581,"2012","Y"
"98",80292,"02","3",2012-09-13 01:27:00,2012-09-12,21:27:00,21,201202062351,"7200 BLOCK WHITAKER AV",300,"Robbery Firearm",-75.07863373,40.05536609,40.05536609,-75.07863373,"2012","Y"
"99",80293,"22","1",2012-07-01 01:59:00,2012-06-30,21:59:00,21,201222054147,"1900 BLOCK MORSE ST",400,"Aggravated Assault Firearm",-75.16542627,39.98165073,39.98165073,-75.16542627,"2012","Y"
"100",80301,"19","1",2012-11-28 18:38:00,2012-11-28,13:38:00,13,201219099667,"5900 BLOCK W COLUMBIA AVE",400,"Aggravated Assault Firearm",-75.23933823,39.98145682,39.98145682,-75.23933823,"2012","Y"
"101",80307,"39","2",2012-11-30 14:36:00,2012-11-30,09:36:00,9,201239079449,"3800 BLOCK N 18TH ST",400,"Aggravated Assault Firearm",-75.15700748,40.01277773,40.01277773,-75.15700748,"2012","Y"
"102",80364,"06","2",2012-09-06 02:28:00,2012-09-05,22:28:00,22,201206043956,"400 BLOCK MARKET ST",300,"Robbery Firearm",-75.14725993,39.95037988,39.95037988,-75.14725993,"2012","Y"
"103",80375,"12","4",2012-08-01 19:44:00,2012-08-01,15:44:00,15,201212056960,"5800 BLOCK FLORENCE AV",400,"Aggravated Assault Firearm",-75.23378627,39.93804389,39.93804389,-75.23378627,"2012","Y"
"104",80399,"15","1",2012-11-12 04:12:00,2012-11-11,23:12:00,23,201215109788,"5200 BLOCK N PENN ST",300,"Robbery Firearm",-75.07905204,40.02496214,40.02496214,-75.07905204,"2012","Y"
"105",80404,"17","2",2012-12-30 00:23:00,2012-12-29,19:23:00,19,201217060731,"2700 BLOCK TASKER ST",400,"Aggravated Assault Firearm",-75.18969035,39.9332367,39.9332367,-75.18969035,"2012","Y"
"106",80406,"14","4",2012-09-13 03:49:00,2012-09-12,23:49:00,23,201214069485,"8000 BLOCK TEMPLE RD",300,"Robbery Firearm",-75.16731246,40.07421721,40.07421721,-75.16731246,"2012","Y"
"107",80457,"16","2",2012-12-06 07:04:00,2012-12-06,02:04:00,2,201216050805,"4300 BLOCK WALLACE ST",300,"Robbery Firearm",-75.20920914,39.96351217,39.96351217,-75.20920914,"2012","Y"
"108",80196,"02","1",2012-12-30 08:04:00,2012-12-30,03:04:00,3,201202087017,"900 BLOCK SANGER ST",300,"Robbery Firearm",-75.09060111,40.03340805,40.03340805,-75.09060111,"2012","Y"
"109",80198,"35","3",2012-06-04 22:35:00,2012-06-04,18:35:00,18,201235043747,"5700 BLOCK N BROAD ST",400,"Aggravated Assault Firearm",-75.14457469,40.03984595,40.03984595,-75.14457469,"2012","Y"
"110",85333,"26","1",2012-08-25 07:01:00,2012-08-25,03:01:00,3,201226044947,"N 04TH ST  /  W CUMBERLAND ST",400,"Aggravated Assault Firearm",-75.13902313,39.98877367,39.98877367,-75.13902313,"2012","Y"
"111",85498,"24","2",2012-08-20 01:06:00,2012-08-19,21:06:00,21,201224074297,"400 BLOCK E SOMERSET ST",400,"Aggravated Assault Firearm",-75.12353376,39.99157051,39.99157051,-75.12353376,"2012","Y"
"112",85504,"15","1",2012-12-27 11:34:00,2012-12-27,06:34:00,6,201215124265,"1500 BLOCK FOULKROD ST",400,"Aggravated Assault Firearm",-75.08351045,40.01837487,40.01837487,-75.08351045,"2012","Y"
"113",85741,"24","1",2012-08-02 00:21:00,2012-08-01,20:21:00,20,201224068310,"3300 BLOCK RAND ST",300,"Robbery Firearm",-75.11242049,39.99801619,39.99801619,-75.11242049,"2012","Y"
"114",85746,"22","1",2012-08-09 05:12:00,2012-08-09,01:12:00,1,201222066576,"2600 BLOCK N SARTAIN ST",400,"Aggravated Assault Firearm",-75.15067625,39.99181058,39.99181058,-75.15067625,"2012","Y"
"115",85753,"22","2",2012-08-07 07:56:00,2012-08-07,03:56:00,3,201222065955,"2300 BLOCK N 25TH ST",400,"Aggravated Assault Firearm",-75.17344222,39.99129878,39.99129878,-75.17344222,"2012","Y"
"116",85508,"35","2",2012-12-09 00:09:00,2012-12-08,19:09:00,19,201235094403,"1500 BLOCK BELFIELD AV",300,"Robbery Firearm",-75.14998701,40.02539993,40.02539993,-75.14998701,"2012","Y"
"117",85511,"39","1",2012-10-01 04:51:00,2012-10-01,00:51:00,0,201239066588,"3200 BLOCK W ALLEGHENY AVE",400,"Aggravated Assault Firearm",-75.1825461,40.00542211,40.00542211,-75.1825461,"2012","Y"
"118",85528,"15","1",2012-11-17 00:20:00,2012-11-16,19:20:00,19,201215111325,"4600 BLOCK RICHMOND ST",300,"Robbery Firearm",-75.06905201,39.99957518,39.99957518,-75.06905201,"2012","Y"
"119",85775,"12","3",2012-08-04 01:07:00,2012-08-03,21:07:00,21,201212057603,"1500 BLOCK S LINDENWOOD ST",400,"Aggravated Assault Firearm",-75.21838756,39.93873498,39.93873498,-75.21838756,"2012","Y"
"120",85537,"15","2",2012-10-15 21:06:00,2012-10-15,17:06:00,17,201215100438,"6500 BLOCK FRANKFORD AVE",300,"Robbery Firearm",-75.05566342,40.02985228,40.02985228,-75.05566342,"2012","Y"
"121",85559,"16","2",2012-12-19 21:20:00,2012-12-19,16:20:00,16,201216052616,"4800 BLOCK HOOPES ST",300,"Robbery Firearm",-75.21786781,39.96835111,39.96835111,-75.21786781,"2012","Y"
"122",85788,"07","1",2012-10-21 01:39:00,2012-10-20,21:39:00,21,201207037382,"8400 BLOCK BUSTLETON AV",300,"Robbery Firearm",-75.05075713,40.06955371,40.06955371,-75.05075713,"2012","Y"
"123",85801,"18","1",2012-07-29 04:51:00,2012-07-29,00:51:00,0,201218043928,"5900 BLOCK DELANCEY ST",300,"Robbery Firearm",-75.24198513,39.95612777,39.95612777,-75.24198513,"2012","Y"
"124",85567,"26","2",2012-09-22 09:49:00,2012-09-22,05:49:00,5,201226050065,"1700 BLOCK N FRONT ST",300,"Robbery Firearm",-75.1343357,39.97500224,39.97500224,-75.1343357,"2012","Y"
"125",85576,"22","1",2012-09-20 04:28:00,2012-09-20,00:28:00,0,201222079507,"2500 BLOCK N 12TH ST",400,"Aggravated Assault Firearm",-75.15149305,39.99038162,39.99038162,-75.15149305,"2012","Y"
"126",85608,"07","1",2012-10-15 01:58:00,2012-10-14,21:58:00,21,201207036665,"2000 BLOCK ARTHUR ST",300,"Robbery Firearm",-75.05442724,40.0636574,40.0636574,-75.05442724,"2012","Y"
"127",85612,"15","1",2012-10-02 04:46:00,2012-10-02,00:46:00,0,201215095717,"4700 BLOCK WORTH ST",300,"Robbery Firearm",-75.07669089,40.00983081,40.00983081,-75.07669089,"2012","Y"
"128",85837,"35","3",2012-10-28 04:24:00,2012-10-28,00:24:00,0,201235084275,"1800 BLOCK SULIS ST",400,"Aggravated Assault Firearm",-75.15348529,40.02897939,40.02897939,-75.15348529,"2012","Y"
"129",85838,"15","1",2012-10-19 20:16:00,2012-10-19,16:16:00,16,201215101857,"2600 BLOCK ASH ST",400,"Aggravated Assault Firearm",-75.06925429,40.00261575,40.00261575,-75.06925429,"2012","Y"
"130",85839,"08","2",2012-09-01 18:01:00,2012-09-01,14:01:00,14,201208036748,"9400 BLOCK FAIRGREEN LA",400,"Aggravated Assault Firearm",-75.01653906,40.06629537,40.06629537,-75.01653906,"2012","Y"
"131",85852,"26","3",2012-07-15 22:56:00,2012-07-15,18:56:00,18,201226037679,"2100 BLOCK E NORRIS ST",300,"Robbery Firearm",-75.13092252,39.97887281,39.97887281,-75.13092252,"2012","Y"
"132",85628,"07","2",2012-06-24 14:28:00,2012-06-24,10:28:00,10,201207023060,"2300 BLOCK TREMONT ST",300,"Robbery Firearm",-75.03663034,40.07302903,40.07302903,-75.03663034,"2012","Y"
"133",85641,"25","1",2012-08-10 19:56:00,2012-08-10,15:56:00,15,201225065692,"3800 BLOCK N 07TH ST",300,"Robbery Firearm",-75.13981827,40.01094836,40.01094836,-75.13981827,"2012","Y"
"134",85643,"39","2",2012-07-07 08:44:00,2012-07-07,04:44:00,4,201239046458,"1900 BLOCK W HUNTING PARK AVE",400,"Aggravated Assault Firearm",-75.15795514,40.01402592,40.01402592,-75.15795514,"2012","Y"
"135",85865,"01","1",2012-06-03 02:38:00,2012-06-02,22:38:00,22,201201025215,"2200 BLOCK S 22ND ST",400,"Aggravated Assault Firearm",-75.18302694,39.92482186,39.92482186,-75.18302694,"2012","Y"
"136",85876,"12","1",2012-07-31 00:21:00,2012-07-30,20:21:00,20,201212056457,"7300 BLOCK THEODORE ST",400,"Aggravated Assault Firearm",-75.24302382,39.91251029,39.91251028,-75.24302382,"2012","Y"
"137",85656,"17","1",2012-09-25 04:25:00,2012-09-25,00:25:00,0,201217046149,"2000 BLOCK ANNIN ST",300,"Robbery Firearm",-75.17660173,39.93778234,39.93778234,-75.17660173,"2012","Y"
"138",85668,"39","2",2012-09-28 23:28:00,2012-09-28,19:28:00,19,201239066067,"3500 BLOCK N 16TH ST",400,"Aggravated Assault Firearm",-75.15513719,40.00659777,40.00659777,-75.15513719,"2012","Y"
"139",85893,"26","3",2012-11-29 03:07:00,2012-11-28,22:07:00,22,201226061461,"2300 BLOCK E NORRIS ST",300,"Robbery Firearm",-75.12863121,39.97754273,39.97754273,-75.12863121,"2012","Y"
"140",85692,"22","1",2012-07-21 06:39:00,2012-07-21,02:39:00,2,201222060637,"2000 BLOCK N 18TH ST",300,"Robbery Firearm",-75.16318767,39.98448083,39.98448083,-75.16318767,"2012","Y"
"141",85355,"35","2",2012-11-27 17:43:00,2012-11-27,12:43:00,12,201235091606,"200 BLOCK W RUSCOMB ST",300,"Robbery Firearm",-75.12782751,40.02667234,40.02667234,-75.12782751,"2012","Y"
"142",85364,"35","2",2012-12-09 06:51:00,2012-12-09,01:51:00,1,201235094502,"4700 BLOCK N BROAD ST",400,"Aggravated Assault Firearm",-75.14755819,40.0261477,40.0261477,-75.14755819,"2012","Y"
"143",85369,"18","3",2012-10-29 21:19:00,2012-10-29,17:19:00,17,201218064114,"4600 BLOCK WOODLAND AVE",300,"Robbery Firearm",-75.21024155,39.94400572,39.94400572,-75.21024155,"2012","Y"
"144",85232,"19","1",2012-08-16 03:42:00,2012-08-15,23:42:00,23,201219067423,"1300 BLOCK WESTBURY DR",300,"Robbery Firearm",-75.26294336,39.97249076,39.97249076,-75.26294336,"2012","Y"
"145",85391,"24","2",2012-06-05 15:16:00,2012-06-05,11:16:00,11,201224048430,"2800 BLOCK C ST",300,"Robbery Firearm",-75.12419042,39.99319412,39.99319412,-75.12419042,"2012","Y"
"146",85237,"15","2",2012-11-05 23:26:00,2012-11-05,18:26:00,18,201215107839,"6500 BLOCK FRANKFORD AV",300,"Robbery Firearm",-75.05566342,40.02985228,40.02985228,-75.05566342,"2012","Y"
"147",85408,"02","2",2012-08-24 01:45:00,2012-08-23,21:45:00,21,201202057577,"400 BLOCK VAN KIRK ST",300,"Robbery Firearm",-75.10519467,40.04541007,40.04541007,-75.10519467,"2012","Y"
"148",85421,"24","1",2012-12-06 21:07:00,2012-12-06,16:07:00,16,201224107531,"3900 BLOCK KENSINGTON AVE",300,"Robbery Firearm",-75.09634977,40.00586099,40.00586099,-75.09634977,"2012","Y"
"149",85262,"39","2",2012-12-06 04:52:00,2012-12-05,23:52:00,23,201239080944,"3300 BLOCK N 16TH ST",300,"Robbery Firearm",-75.15578558,40.0036109,40.0036109,-75.15578558,"2012","Y"
"150",85263,"24","2",2012-08-14 02:37:00,2012-08-13,22:37:00,22,201224072407,"3100 BLOCK F ST",400,"Aggravated Assault Firearm",-75.11756986,39.99617104,39.99617104,-75.11756986,"2012","Y"
"151",85276,"01","1",2012-08-17 01:35:00,2012-08-16,21:35:00,21,201201038574,"1800 BLOCK MC KEAN ST",300,"Robbery Firearm",-75.17639723,39.92650114,39.92650114,-75.17639723,"2012","Y"
"152",85285,"12","2",2012-06-28 00:49:00,2012-06-27,20:49:00,20,201212047396,"6000 BLOCK REINHARD ST",400,"Aggravated Assault Firearm",-75.22979292,39.93217156,39.93217156,-75.22979292,"2012","Y"
"153",85438,"39","1",2012-08-23 04:25:00,2012-08-23,00:25:00,0,201239057623,"100 BLOCK MANHEIM ST",300,"Robbery Firearm",-75.16870176,40.02674712,40.02674712,-75.16870175,"2012","Y"
"154",85445,"17","2",2012-12-22 08:51:00,2012-12-22,03:51:00,3,201217059809,"3100 BLOCK WHARTON ST",400,"Aggravated Assault Firearm",-75.19573826,39.93777635,39.93777635,-75.19573825,"2012","Y"
"155",85301,"02","2",2012-07-23 18:56:00,2012-07-23,14:56:00,14,201202050405,"6000 BLOCK HASBROOK AV",300,"Robbery Firearm",-75.10407895,40.04672506,40.04672506,-75.10407895,"2012","Y"
"156",83666,"35","2",2012-06-05 21:22:00,2012-06-05,17:22:00,17,201235044050,"5300 BLOCK N 02ND ST",300,"Robbery Firearm",-75.12638584,40.03121955,40.03121955,-75.12638584,"2012","Y"
"157",84514,"09","1",2012-12-30 08:50:00,2012-12-30,03:50:00,3,201209055466,"1500 BLOCK SPRUCE ST",300,"Robbery Firearm",-75.16699467,39.94726702,39.94726702,-75.16699467,"2012","Y"
"158",84698,"18","2",2012-07-20 16:59:00,2012-07-20,12:59:00,12,201218042058,"5600 BLOCK PEMBERTON ST",400,"Aggravated Assault Firearm",-75.23496835,39.95090866,39.95090866,-75.23496835,"2012","Y"
"159",83931,"08","2",2012-07-18 13:58:00,2012-07-18,09:58:00,9,201208030287,"3200 BLOCK RED LION RD",300,"Robbery Firearm",-74.99435075,40.08169099,40.08169099,-74.99435075,"2012","Y"
"160",84727,"15","3",2012-06-21 05:28:00,2012-06-21,01:28:00,1,201215058396,"4100 BLOCK LONGSHORE AVE",300,"Robbery Firearm",-75.04832089,40.03265261,40.03265261,-75.04832089,"2012","Y"
"161",84734,"03","1",2012-07-06 05:14:00,2012-07-06,01:14:00,1,201203044132,"700 BLOCK CHRISTIAN ST",300,"Robbery Firearm",-75.15481074,39.9381595,39.9381595,-75.15481074,"2012","Y"
"162",84974,"19","1",2012-06-19 17:13:00,2012-06-19,13:13:00,13,201219049161,"1400 BLOCK W END DR",400,"Aggravated Assault Firearm",-75.26323545,39.97767202,39.97767202,-75.26323545,"2012","Y"
"163",83945,"25","3",2012-10-02 00:16:00,2012-10-01,20:16:00,20,201225081768,"3300 BLOCK N FRONT ST",400,"Aggravated Assault Firearm",-75.12892304,40.00014201,40.00014201,-75.12892304,"2012","Y"
"164",84758,"26","2",2012-09-15 21:11:00,2012-09-15,17:11:00,17,201226048849,"900 BLOCK N 09TH ST",400,"Aggravated Assault Firearm",-75.15094284,39.97053339,39.97053339,-75.15094284,"2012","Y"
"165",83980,"08","1",2012-11-10 05:45:00,2012-11-10,00:45:00,0,201208046741,"8600 BLOCK DITMAN ST",400,"Aggravated Assault Firearm",-75.01271024,40.04378891,40.04378891,-75.01271024,"2012","Y"
"166",84774,"22","1",2012-08-07 09:41:00,2012-08-07,05:41:00,5,201222065966,"2000 BLOCK W BERKS ST",400,"Aggravated Assault Firearm",-75.16676344,39.98295132,39.98295132,-75.16676344,"2012","Y"
"167",84784,"12","4",2012-06-26 04:02:00,2012-06-26,00:02:00,0,201212046865,"1300 BLOCK S 58TH ST",300,"Robbery Firearm",-75.23503633,39.94148315,39.94148315,-75.23503633,"2012","Y"
"168",84787,"39","2",2012-11-11 23:25:00,2012-11-11,18:25:00,18,201239075606,"1700 BLOCK W TIOGA ST",400,"Aggravated Assault Firearm",-75.15828076,40.00700343,40.00700342,-75.15828076,"2012","Y"
"169",83992,"19","2",2012-06-27 22:38:00,2012-06-27,18:38:00,18,201219051706,"200 BLOCK N EDGEWOOD ST",400,"Aggravated Assault Firearm",-75.24101043,39.96562753,39.96562753,-75.24101043,"2012","Y"
"170",84813,"19","3",2012-11-30 01:23:00,2012-11-29,20:23:00,20,201219100038,"5700 BLOCK OVERBROOK AVE",300,"Robbery Firearm",-75.24001927,39.99204758,39.99204758,-75.24001927,"2012","Y"
"171",84826,"24","1",2012-07-09 03:31:00,2012-07-08,23:31:00,23,201224060256,"3600 BLOCK EMERALD ST",400,"Aggravated Assault Firearm",-75.10202911,39.99908801,39.99908801,-75.10202911,"2012","Y"
"172",84848,"25","1",2012-09-01 04:28:00,2012-09-01,00:28:00,0,201225072124,"3700 BLOCK N FRANKLIN ST",300,"Robbery Firearm",-75.14078196,40.00954456,40.00954456,-75.14078196,"2012","Y"
"173",84047,"14","1",2012-12-04 20:04:00,2012-12-04,15:04:00,15,201214090641,"1100 BLOCK E SHARPNACK ST",300,"Robbery Firearm",-75.1674268,40.06710166,40.06710166,-75.1674268,"2012","Y"
"174",84070,"35","2",2012-06-17 01:24:00,2012-06-16,21:24:00,21,201235047404,"4600 BLOCK N 12TH ST",400,"Aggravated Assault Firearm",-75.14449081,40.02249308,40.02249308,-75.14449081,"2012","Y"
"175",84867,"12","4",2012-09-19 19:31:00,2012-09-19,15:31:00,15,201212070393,"1400 BLOCK S 58TH ST",300,"Robbery Firearm",-75.23503633,39.94148315,39.94148315,-75.23503633,"2012","Y"
"176",85041,"24","1",2012-09-25 08:16:00,2012-09-25,04:16:00,4,201224085926,"1800 BLOCK E THAYER ST",300,"Robbery Firearm",-75.10929703,39.99875419,39.99875419,-75.10929703,"2012","Y"
"177",83396,"12","3",2012-10-22 04:09:00,2012-10-22,00:09:00,0,201212079507,"2500 BLOCK HOBSON ST",300,"Robbery Firearm",-75.23388177,39.9197023,39.9197023,-75.23388177,"2012","Y"
"178",84248,"01","1",2012-08-20 21:08:00,2012-08-20,17:08:00,17,201201039139,"2200 BLOCK WINTON ST",300,"Robbery Firearm",-75.18293692,39.92524405,39.92524405,-75.18293692,"2012","Y"
"179",84893,"12","4",2012-11-19 06:04:00,2012-11-19,01:04:00,1,201212086590,"5700 BLOCK PENTRIDGE ST",400,"Aggravated Assault Firearm",-75.23173215,39.94054883,39.94054883,-75.23173215,"2012","Y"
"180",84898,"12","2",2012-07-06 16:52:00,2012-07-06,12:52:00,12,201212049948,"6500 BLOCK WOODLAND AVE",300,"Robbery Firearm",-75.23513636,39.9250221,39.9250221,-75.23513636,"2012","Y"
"181",85109,"02","1",2012-08-22 05:09:00,2012-08-22,01:09:00,1,201202057125,"6200 BLOCK FRONTENAC ST",300,"Robbery Firearm",-75.08211647,40.0401567,40.0401567,-75.08211647,"2012","Y"
"182",85110,"02","3",2012-07-09 04:30:00,2012-07-09,00:30:00,0,201202047381,"2300 BLOCK COTTMAN AVE",400,"Aggravated Assault Firearm",-75.059939,40.04776041,40.04776041,-75.059939,"2012","Y"
"183",85121,"26","2",2012-09-22 10:02:00,2012-09-22,06:02:00,6,201226050063,"400 BLOCK W BERKS ST",300,"Robbery Firearm",-75.14102366,39.97962688,39.97962688,-75.14102366,"2012","Y"
"184",83431,"22","1",2012-10-02 02:33:00,2012-10-01,22:33:00,22,201222083087,"2600 BLOCK N BOUVIER ST",400,"Aggravated Assault Firearm",-75.16048371,39.99437187,39.99437187,-75.16048371,"2012","Y"
"185",83436,"12","3",2012-12-21 17:10:00,2012-12-21,12:10:00,12,201212094292,"2600 BLOCK S DEWEY ST",400,"Aggravated Assault Firearm",-75.22396192,39.92452336,39.92452336,-75.22396192,"2012","Y"
"186",84928,"26","3",2012-10-14 02:22:00,2012-10-13,22:22:00,22,201226053887,"2300 BLOCK CEDAR ST",300,"Robbery Firearm",-75.12595165,39.97758921,39.97758921,-75.12595164,"2012","Y"
"187",83714,"18","1",2012-09-27 02:29:00,2012-09-26,22:29:00,22,201218056933,"600 BLOCK S FELTON ST",300,"Robbery Firearm",-75.247752,39.95235658,39.95235658,-75.247752,"2012","Y"
"188",84302,"24","1",2012-08-19 02:56:00,2012-08-18,22:56:00,22,201224074001,"3600 BLOCK JASPER ST",400,"Aggravated Assault Firearm",-75.10185723,40.00061125,40.00061125,-75.10185723,"2012","Y"
"189",83470,"25","3",2012-07-19 19:40:00,2012-07-19,15:40:00,15,201225059176,"2800 BLOCK N LAWRENCE ST",400,"Aggravated Assault Firearm",-75.13891817,39.99356361,39.99356361,-75.13891817,"2012","Y"
"190",83763,"18","1",2012-06-14 07:58:00,2012-06-14,03:58:00,3,201218034058,"5800 BLOCK COBBS CREEK PKWY",300,"Robbery Firearm",-75.24205136,39.946084,39.946084,-75.24205136,"2012","Y"
"191",83501,"25","3",2012-06-06 06:19:00,2012-06-06,02:19:00,2,201225045798,"800 BLOCK W SOMERSET ST",300,"Robbery Firearm",-75.14476115,39.99431916,39.99431916,-75.14476115,"2012","Y"
"192",83504,"03","2",2012-12-24 04:16:00,2012-12-23,23:16:00,23,201203081374,"500 BLOCK MC CLELLAN ST",400,"Aggravated Assault Firearm",-75.15435526,39.92569481,39.92569481,-75.15435526,"2012","Y"
"193",84574,"39","3",2012-10-11 04:18:00,2012-10-11,00:18:00,0,201239068867,"3100 BLOCK N 24TH ST",300,"Robbery Firearm",-75.16944208,40.00210973,40.00210973,-75.16944208,"2012","Y"
"194",84403,"24","1",2012-08-19 02:20:00,2012-08-18,22:20:00,22,201224073989,"3600 BLOCK JASPER ST",400,"Aggravated Assault Firearm",-75.10185723,40.00061125,40.00061125,-75.10185723,"2012","Y"
"195",84579,"03","3",2012-11-24 17:44:00,2012-11-24,12:44:00,12,201203075290,"2600 BLOCK S 08TH ST",300,"Robbery Firearm",-75.16108519,39.9168764,39.9168764,-75.16108519,"2012","Y"
"196",83553,"17","2",2012-07-31 04:28:00,2012-07-31,00:28:00,0,201217036441,"1400 BLOCK S ETTING ST",300,"Robbery Firearm",-75.18969175,39.93573841,39.93573841,-75.18969175,"2012","Y"
"197",83576,"15","3",2012-08-29 09:19:00,2012-08-29,05:19:00,5,201215083650,"2800 BLOCK COTTMAN AV",300,"Robbery Firearm",-75.05311577,40.04377358,40.04377358,-75.05311577,"2012","Y"
"198",84424,"22","3",2012-09-04 17:39:00,2012-09-04,13:39:00,13,201222074729,"1700 BLOCK MASTER ST",400,"Aggravated Assault Firearm",-75.16518635,39.9753088,39.9753088,-75.16518636,"2012","Y"
"199",84432,"35","2",2012-12-29 21:50:00,2012-12-29,16:50:00,16,201235099057,"5100 BLOCK N FAIRHILL ST",400,"Aggravated Assault Firearm",-75.13320098,40.02892151,40.02892151,-75.13320098,"2012","Y"
"200",84605,"01","1",2012-06-24 06:14:00,2012-06-24,02:14:00,2,201201029028,"2100 BLOCK S 15TH ST",400,"Aggravated Assault Firearm",-75.17164843,39.92336197,39.92336197,-75.17164843,"2012","Y"
"201",83602,"39","1",2012-08-31 14:55:00,2012-08-31,10:55:00,10,201239059653,"5200 BLOCK SCHUYLER ST",400,"Aggravated Assault Firearm",-75.17752309,40.02320111,40.02320111,-75.17752309,"2012","Y"
"202",84646,"35","3",2012-12-08 12:06:00,2012-12-08,07:06:00,7,201235094264,"4500 BLOCK STENTON AV",300,"Robbery Firearm",-75.15955407,40.02393461,40.02393461,-75.15955407,"2012","Y"
"203",84649,"12","2",2012-09-04 05:02:00,2012-09-04,01:02:00,1,201212066168,"S 68TH ST  /  REGENT ST",300,"Robbery Firearm",-75.24169427,39.92550255,39.92550255,-75.24169427,"2012","Y"
"204",84654,"02","1",2012-10-10 19:36:00,2012-10-10,15:36:00,15,201202068831,"1400 BLOCK KNORR ST",300,"Robbery Firearm",-75.07422234,40.04528675,40.04528675,-75.07422234,"2012","Y"
"205",83862,"18","3",2012-09-14 03:31:00,2012-09-13,23:31:00,23,201218054206,"S 46TH ST  /  YOCUM ST",300,"Robbery Firearm",-75.21091023,39.94538526,39.94538526,-75.21091023,"2012","Y"
"206",84466,"24","1",2012-09-17 08:34:00,2012-09-17,04:34:00,4,201224083393,"1000 BLOCK E CAYUGA ST",300,"Robbery Firearm",-75.10742919,40.01465652,40.01465652,-75.10742919,"2012","Y"
"207",84684,"39","1",2012-10-01 02:29:00,2012-09-30,22:29:00,22,201239066576,"3100 BLOCK N NATRONA ST",400,"Aggravated Assault Firearm",-75.18271571,40.00466247,40.00466247,-75.18271571,"2012","Y"
"208",83887,"19","2",2012-06-27 22:38:00,2012-06-27,18:38:00,18,201219051707,"200 BLOCK N EDGEWOOD ST",400,"Aggravated Assault Firearm",-75.24101043,39.96562753,39.96562753,-75.24101043,"2012","Y"
"209",83892,"14","2",2012-12-25 15:47:00,2012-12-25,10:47:00,10,201214096173,"6400 BLOCK MUSGRAVE ST",400,"Aggravated Assault Firearm",-75.17855199,40.05129601,40.051296,-75.17855199,"2012","Y"
"210",83905,"25","3",2012-11-25 23:54:00,2012-11-25,18:54:00,18,201225098164,"3000 BLOCK N 07TH ST",400,"Aggravated Assault Firearm",-75.1425913,39.99823223,39.99823223,-75.1425913,"2012","Y"
"211",83645,"14","1",2012-07-23 17:23:00,2012-07-23,13:23:00,13,201214056176,"900 BLOCK E WOODLAWN ST",300,"Robbery Firearm",-75.16110003,40.04738391,40.04738391,-75.16110003,"2012","Y"
"212",88794,"02","1",2012-11-09 02:37:00,2012-11-08,21:37:00,21,201202075520,"6600 BLOCK OAKLAND ST",300,"Robbery Firearm",-75.06884952,40.04039039,40.04039039,-75.06884952,"2012","Y"
"213",89697,"19","2",2012-07-08 00:45:00,2012-07-07,20:45:00,20,201219055088,"5500 BLOCK HARMER ST",400,"Aggravated Assault Firearm",-75.23231567,39.96929331,39.96929331,-75.23231567,"2012","Y"
"214",89706,"25","2",2012-11-15 01:27:00,2012-11-14,20:27:00,20,201225095065,"500 BLOCK E THELMA ST",300,"Robbery Firearm",-75.11494033,40.0192926,40.0192926,-75.11494033,"2012","Y"
"215",89711,"22","2",2012-11-14 14:44:00,2012-11-14,09:44:00,9,201222096620,"2500 BLOCK N 31ST ST",400,"Aggravated Assault Firearm",-75.18214266,39.99587746,39.99587746,-75.18214266,"2012","Y"
"216",89175,"22","1",2012-11-11 14:09:00,2012-11-11,09:09:00,9,201222095736,"2000 BLOCK N 18TH ST",300,"Robbery Firearm",-75.16328942,39.98404311,39.98404311,-75.16328942,"2012","Y"
"217",89181,"22","3",2012-09-19 09:19:00,2012-09-19,05:19:00,5,201222079236,"900 BLOCK N 11TH ST",300,"Robbery Firearm",-75.15533067,39.9691328,39.9691328,-75.15533067,"2012","Y"
"218",90242,"15","3",2012-10-03 01:32:00,2012-10-02,21:32:00,21,201215096007,"4200 BLOCK SHEFFIELD AVE",300,"Robbery Firearm",-75.03261968,40.03816308,40.03816308,-75.03261968,"2012","Y"
"219",90254,"39","2",2012-12-18 10:25:00,2012-12-18,05:25:00,5,201239083856,"4300 BLOCK N BROAD ST",300,"Robbery Firearm",-75.14923266,40.01851187,40.01851186,-75.14923267,"2012","Y"
"220",89962,"25","2",2012-12-18 00:37:00,2012-12-17,19:37:00,19,201225104170,"A ST  /  E COURTLAND ST",400,"Aggravated Assault Firearm",-75.12275574,40.01973109,40.01973109,-75.12275574,"2012","Y"
"221",89973,"26","3",2012-07-14 03:59:00,2012-07-13,23:59:00,23,201226037356,"2100 BLOCK E YORK ST",300,"Robbery Firearm",-75.12855559,39.9824891,39.9824891,-75.12855559,"2012","Y"
"222",89978,"24","2",2012-08-24 00:56:00,2012-08-23,20:56:00,20,201224075456,"3000 BLOCK TULIP ST",400,"Aggravated Assault Firearm",-75.11235799,39.98702959,39.98702959,-75.11235799,"2012","Y"
"223",89980,"14","1",2012-12-25 02:32:00,2012-12-24,21:32:00,21,201214096112,"6400 BLOCK BELFIELD AVE",400,"Aggravated Assault Firearm",-75.17619003,40.05582887,40.05582887,-75.17619003,"2012","Y"
"224",90257,"09","3",2012-08-27 17:03:00,2012-08-27,13:03:00,13,201209037047,"1600 BLOCK WALLACE ST",300,"Robbery Firearm",-75.16565274,39.96575763,39.96575763,-75.16565273,"2012","Y"
"225",90268,"39","2",2012-06-12 02:57:00,2012-06-11,22:57:00,22,201239039324,"1800 BLOCK W HUNTING PARK AVE",300,"Robbery Firearm",-75.15795514,40.01402592,40.01402592,-75.15795514,"2012","Y"
"226",89986,"17","3",2012-09-05 13:22:00,2012-09-05,09:22:00,9,201217042520,"2000 BLOCK FERNON ST",400,"Aggravated Assault Firearm",-75.17799982,39.93129335,39.93129335,-75.17799982,"2012","Y"
"227",89996,"39","3",2012-10-03 04:55:00,2012-10-03,00:55:00,0,201239067012,"2900 BLOCK N BROAD ST",300,"Robbery Firearm",-75.15398723,39.99679117,39.99679117,-75.15398722,"2012","Y"
"228",90001,"26","1",2012-10-26 08:43:00,2012-10-26,04:43:00,4,201226056025,"2600 BLOCK N 05TH ST",300,"Robbery Firearm",-75.14054622,39.99050757,39.99050757,-75.14054621,"2012","Y"
"229",90007,"19","2",2012-08-11 16:49:00,2012-08-11,12:49:00,12,201219065973,"5000 BLOCK LANCASTER AVE",400,"Aggravated Assault Firearm",-75.22436794,39.97610211,39.97610211,-75.22436794,"2012","Y"
"230",90300,"02","2",2012-06-07 02:56:00,2012-06-06,22:56:00,22,201202039559,"200 BLOCK BENNER ST",400,"Aggravated Assault Firearm",-75.10357558,40.04838723,40.04838723,-75.10357558,"2012","Y"
"231",90017,"19","3",2012-10-27 16:01:00,2012-10-27,12:01:00,12,201219090485,"5300 BLOCK WYNNEFIELD AV",300,"Robbery Firearm",-75.23106296,39.9917735,39.9917735,-75.23106296,"2012","Y"
"232",89266,"35","2",2012-07-12 22:01:00,2012-07-12,18:01:00,18,201235054869,"5100 BLOCK N MARVINE ST",400,"Aggravated Assault Firearm",-75.14167079,40.03160988,40.03160988,-75.14167079,"2012","Y"
"233",89717,"08","2",2012-09-16 06:35:00,2012-09-16,02:35:00,2,201208038845,"9900 BLOCK FRANKFORD AVE",300,"Robbery Firearm",-74.98417462,40.06408465,40.06408465,-74.98417462,"2012","Y"
"234",89720,"12","1",2012-08-08 02:27:00,2012-08-07,22:27:00,22,201212058793,"2500 BLOCK S 78TH ST",300,"Robbery Firearm",-75.2494771,39.90726163,39.90726162,-75.2494771,"2012","Y"
"235",89722,"01","1",2012-08-16 07:04:00,2012-08-16,03:04:00,3,201201038474,"2000 BLOCK EMILY ST",400,"Aggravated Assault Firearm",-75.17907017,39.92642878,39.92642878,-75.17907017,"2012","Y"
"236",90046,"09","3",2012-11-10 04:13:00,2012-11-09,23:13:00,23,201209048800,"1600 BLOCK WALLACE ST",400,"Aggravated Assault Firearm",-75.16565274,39.96575763,39.96575763,-75.16565273,"2012","Y"
"237",90049,"25","3",2012-11-25 19:47:00,2012-11-25,14:47:00,14,201225098108,"3200 BLOCK N PHILIP ST",400,"Aggravated Assault Firearm",-75.13349167,40.00073056,40.00073056,-75.13349167,"2012","Y"
"238",89049,"26","1",2012-11-14 00:41:00,2012-11-13,19:41:00,19,201226059050,"600 BLOCK W NORRIS ST",400,"Aggravated Assault Firearm",-75.14445415,39.98160628,39.98160628,-75.14445415,"2012","Y"
"239",89745,"26","2",2012-09-29 01:15:00,2012-09-28,21:15:00,21,201226051217,"900 BLOCK N AMERICAN ST",300,"Robbery Firearm",-75.14163316,39.96458181,39.96458181,-75.14163316,"2012","Y"
"240",89768,"24","3",2012-11-06 17:24:00,2012-11-06,12:24:00,12,201224098984,"2500 BLOCK E WESTMORELAND ST",300,"Robbery Firearm",-75.10227973,39.98795945,39.98795945,-75.10227973,"2012","Y"
"241",90098,"18","2",2012-08-27 03:33:00,2012-08-26,23:33:00,23,201218050281,"5500 BLOCK MARKET ST",400,"Aggravated Assault Firearm",-75.23080477,39.96073137,39.96073137,-75.23080477,"2012","Y"
"242",90106,"19","3",2012-08-13 11:47:00,2012-08-13,07:47:00,7,201219066552,"5400 BLOCK JEFFERSON ST",300,"Robbery Firearm",-75.23079927,39.97910129,39.97910129,-75.23079927,"2012","Y"
"243",89801,"09","1",2012-12-10 08:33:00,2012-12-10,03:33:00,3,201209052965,"17TH  /  MORAVIAN",300,"Robbery Firearm",-75.16900468,39.95037997,39.95037997,-75.16900468,"2012","Y"
"244",89817,"18","1",2012-09-25 23:03:00,2012-09-25,19:03:00,19,201218056709,"6100 BLOCK WALTON AVE",400,"Aggravated Assault Firearm",-75.24684653,39.9521973,39.9521973,-75.24684653,"2012","Y"
"245",90131,"12","4",2012-09-28 20:55:00,2012-09-28,16:55:00,16,201212072853,"S 52ND ST  /  WILLOWS AVE",300,"Robbery Firearm",-75.22544814,39.94607347,39.94607347,-75.22544814,"2012","Y"
"246",90135,"25","3",2012-08-04 12:00:00,2012-08-04,08:00:00,8,201225063935,"2900 BLOCK MUTTER ST",300,"Robbery Firearm",-75.13236914,39.99578515,39.99578515,-75.13236913,"2012","Y"
"247",89371,"18","1",2012-06-16 22:54:00,2012-06-16,18:54:00,18,201218034692,"1200 BLOCK S EDGEWOOD ST",400,"Aggravated Assault Firearm",-75.24505589,39.94494624,39.94494624,-75.24505589,"2012","Y"
"248",89841,"35","2",2012-11-11 02:25:00,2012-11-10,21:25:00,21,201235087609,"5100 BLOCK N BROAD ST",300,"Robbery Firearm",-75.14652163,40.03087478,40.03087477,-75.14652163,"2012","Y"
"249",89849,"35","2",2012-07-18 04:30:00,2012-07-18,00:30:00,0,201235056346,"5200 BLOCK RORER ST",300,"Robbery Firearm",-75.11431845,40.0291661,40.0291661,-75.11431845,"2012","Y"
"250",90149,"26","2",2012-11-28 15:46:00,2012-11-28,10:46:00,10,201226061334,"1600 BLOCK N MARSHALL ST",400,"Aggravated Assault Firearm",-75.14608206,39.97716857,39.97716857,-75.14608206,"2012","Y"
"251",90153,"15","2",2012-07-16 03:29:00,2012-07-15,23:29:00,23,201215068005,"5900 BLOCK TORRESDALE AVE",400,"Aggravated Assault Firearm",-75.05930689,40.01764744,40.01764744,-75.05930689,"2012","Y"
"252",89408,"12","3",2012-08-29 03:14:00,2012-08-28,23:14:00,23,201212064589,"5100 BLOCK GREENWAY AVE",300,"Robbery Firearm",-75.21692927,39.93978145,39.93978145,-75.21692927,"2012","Y"
"253",89888,"12","3",2012-07-18 23:32:00,2012-07-18,19:32:00,19,201212053089,"2500 BLOCK DEWEY ST",300,"Robbery Firearm",-75.22535259,39.92570682,39.92570682,-75.22535259,"2012","Y"
"254",89898,"24","1",2012-10-23 23:22:00,2012-10-23,19:22:00,19,201224095027,"1200 BLOCK ERIE AVE",300,"Robbery Firearm",-75.10533874,40.00552745,40.00552745,-75.10533874,"2012","Y"
"255",89901,"39","3",2012-12-27 04:04:00,2012-12-26,23:04:00,23,201239085658,"2000 BLOCK W ONTARIO ST",400,"Aggravated Assault Firearm",-75.16363107,40.00616148,40.00616148,-75.16363107,"2012","Y"
"256",89902,"12","3",2012-07-19 14:28:00,2012-07-19,10:28:00,10,201212053228,"1500 BLOCK S LINDENWOOD ST",400,"Aggravated Assault Firearm",-75.21838756,39.93873498,39.93873498,-75.21838756,"2012","Y"
"257",89477,"17","3",2012-09-25 21:33:00,2012-09-25,17:33:00,17,201217046221,"1400 BLOCK S 20TH ST",400,"Aggravated Assault Firearm",-75.17755802,39.93337414,39.93337414,-75.17755802,"2012","Y"
"258",89936,"15","1",2012-08-14 21:25:00,2012-08-14,17:25:00,17,201215078661,"4400 BLOCK FRANKFORD AV",300,"Robbery Firearm",-75.08635161,40.01387714,40.01387714,-75.08635161,"2012","Y"
"259",89948,"03","2",2012-12-24 06:30:00,2012-12-24,01:30:00,1,201203081401,"500 BLOCK MC CLELLAN ST",400,"Aggravated Assault Firearm",-75.15435526,39.92569481,39.92569481,-75.15435526,"2012","Y"
"260",89951,"08","3",2012-09-27 04:17:00,2012-09-27,00:17:00,0,201208040405,"500 BLOCK WATERVIEW LA",300,"Robbery Firearm",-74.98611269,40.09854237,40.09854237,-74.98611269,"2012","Y"
"261",88696,"15","3",2012-07-08 04:42:00,2012-07-08,00:42:00,0,201215065145,"7200 BLOCK FRANKFORD AVE",400,"Aggravated Assault Firearm",-75.0432019,40.03555358,40.03555358,-75.0432019,"2012","Y"
"262",88706,"25","3",2012-08-04 23:48:00,2012-08-04,19:48:00,19,201225064090,"2800 BLOCK N HUTCHINSON",400,"Aggravated Assault Firearm",-75.14653553,39.99454511,39.99454511,-75.14653553,"2012","Y"
"263",88888,"22","3",2012-09-15 04:56:00,2012-09-15,00:56:00,0,201222078048,"1500 BLOCK N 16TH ST",300,"Robbery Firearm",-75.16175303,39.97627201,39.97627201,-75.16175303,"2012","Y"
"264",87139,"26","1",2012-10-06 21:50:00,2012-10-06,17:50:00,17,201226052709,"2600 BLOCK N LAWRENCE ST",400,"Aggravated Assault Firearm",-75.13961752,39.99038544,39.99038544,-75.13961752,"2012","Y"
"265",88461,"03","3",2012-08-16 21:23:00,2012-08-16,17:23:00,17,201203053400,"2600 BLOCK S BROAD ST",300,"Robbery Firearm",-75.17098728,39.9181581,39.9181581,-75.17098728,"2012","Y"
"266",87595,"02","1",2012-09-29 00:01:00,2012-09-28,20:01:00,20,201202066180,"900 BLOCK E GODFREY AVE",300,"Robbery Firearm",-75.09188498,40.02907785,40.02907785,-75.09188498,"2012","Y"
"267",88244,"35","2",2012-09-26 22:31:00,2012-09-26,18:31:00,18,201235075575,"1000 BLOCK WAGNER AV",400,"Aggravated Assault Firearm",-75.13932636,40.03488682,40.03488681,-75.13932636,"2012","Y"
"268",86859,"12","2",2012-11-23 07:10:00,2012-11-23,02:10:00,2,201212087605,"2400 BLOCK S 71ST ST",300,"Robbery Firearm",-75.23991195,39.91688725,39.91688725,-75.23991195,"2012","Y"
"269",88336,"14","1",2012-12-06 13:36:00,2012-12-06,08:36:00,8,201214091155,"2300 BLOCK 74TH AV",400,"Aggravated Assault Firearm",-75.1562885,40.06701572,40.06701572,-75.1562885,"2012","Y"
"270",87230,"02","2",2012-08-21 02:45:00,2012-08-20,22:45:00,22,201202056848,"500 BLOCK E CHELTENHAM AVE",300,"Robbery Firearm",-75.10273514,40.0420935,40.0420935,-75.10273513,"2012","Y"
"271",87005,"17","2",2012-09-26 17:39:00,2012-09-26,13:39:00,13,201217046347,"2600 BLOCK REED ST",400,"Aggravated Assault Firearm",-75.18914979,39.93568068,39.93568068,-75.18914979,"2012","Y"
"272",87341,"22","2",2012-09-06 20:00:00,2012-09-06,16:00:00,16,201222075310,"2600 BLOCK N 22ND ST",400,"Aggravated Assault Firearm",-75.16792791,39.99403461,39.99403461,-75.16792791,"2012","Y"
"273",87362,"17","1",2012-07-31 21:06:00,2012-07-31,17:06:00,17,201217036539,"S 23RD ST  /  CHRISTIAN ST",400,"Aggravated Assault Firearm",-75.18100437,39.94187222,39.94187222,-75.18100437,"2012","Y"
"274",87109,"05","1",2012-12-13 05:12:00,2012-12-13,00:12:00,0,201205022868,"4100 BLOCK MITCHELL ST  /  SHURS LN",300,"Robbery Firearm",-75.2111134,40.02615314,40.02615314,-75.2111134,"2012","Y"
"275",87113,"39","2",2012-12-27 01:43:00,2012-12-26,20:43:00,20,201239085640,"1500 BLOCK W TIOGA ST",300,"Robbery Firearm",-75.15354967,40.00639828,40.00639828,-75.15354967,"2012","Y"
"276",87121,"14","2",2012-11-09 14:40:00,2012-11-09,09:40:00,9,201214084664,"6300 BLOCK HOMER ST",400,"Aggravated Assault Firearm",-75.17754173,40.04879997,40.04879997,-75.17754173,"2012","Y"
"277",92253,"12","3",2012-08-04 06:23:00,2012-08-04,02:23:00,2,201212057699,"3000 BLOCK S 63RD ST",400,"Aggravated Assault Firearm",-75.22277455,39.91992767,39.91992767,-75.22277455,"2012","Y"
"278",92260,"16","2",2012-11-26 19:39:00,2012-11-26,14:39:00,14,201216049491,"400 BLOCK N 50TH ST",400,"Aggravated Assault Firearm",-75.22011328,39.96436882,39.96436882,-75.22011328,"2012","Y"
"279",92261,"25","2",2012-06-28 01:23:00,2012-06-27,21:23:00,21,201225052737,"4600 BLOCK WHITAKER AVE",400,"Aggravated Assault Firearm",-75.11488608,40.01935499,40.01935499,-75.11488608,"2012","Y"
"280",92262,"12","4",2012-10-05 02:34:00,2012-10-04,22:34:00,22,201212074611,"1900 BLOCK S 57TH ST",400,"Aggravated Assault Firearm",-75.22588925,39.93563492,39.93563492,-75.22588925,"2012","Y"
"281",92398,"16","2",2012-12-11 22:28:00,2012-12-11,17:28:00,17,201216051631,"4600 BLOCK FAIRMOUNT AVE",300,"Robbery Firearm",-75.21419738,39.9642674,39.9642674,-75.21419738,"2012","Y"
"282",92399,"39","1",2012-12-03 18:56:00,2012-12-03,13:56:00,13,201239080140,"4900 BLOCK PORTICO ST",400,"Aggravated Assault Firearm",-75.16417445,40.02883706,40.02883706,-75.16417445,"2012","Y"
"283",92401,"35","2",2012-12-29 03:31:00,2012-12-28,22:31:00,22,201235098930,"4700 BLOCK N BROAD ST",300,"Robbery Firearm",-75.14789683,40.02456291,40.02456291,-75.14789683,"2012","Y"
"284",92421,"39","1",2012-06-17 01:34:00,2012-06-16,21:34:00,21,201239040736,"3100 BLOCK N 34TH ST",400,"Aggravated Assault Firearm",-75.18501726,40.00516751,40.00516751,-75.18501726,"2012","Y"
"285",92425,"39","3",2012-11-26 00:51:00,2012-11-25,19:51:00,19,201239078523,"3100 BLOCK N 24TH ST",400,"Aggravated Assault Firearm",-75.16944208,40.00210973,40.00210973,-75.16944208,"2012","Y"
"286",92429,"02","1",2012-11-12 23:57:00,2012-11-12,18:57:00,18,201202076360,"6300 BLOCK ELMHURST ST",400,"Aggravated Assault Firearm",-75.08573911,40.04217818,40.04217818,-75.08573911,"2012","Y"
"287",92485,"08","3",2012-12-31 23:39:00,2012-12-31,18:39:00,18,201208053506,"12800 BLOCK MEDFORD RD",400,"Aggravated Assault Firearm",-74.96474141,40.09898481,40.09898481,-74.96474141,"2012","Y"
"288",92493,"15","1",2012-08-03 01:25:00,2012-08-02,21:25:00,21,201215074464,"5100 BLOCK OXFORD AVE",300,"Robbery Firearm",-75.08462305,40.02505097,40.02505097,-75.08462305,"2012","Y"
"289",92512,"15","3",2012-09-02 08:17:00,2012-09-02,04:17:00,4,201215085222,"4900 BLOCK KNORR ST",300,"Robbery Firearm",-75.04254848,40.0233761,40.0233761,-75.04254848,"2012","Y"
"290",92516,"22","3",2012-09-07 07:38:00,2012-09-07,03:38:00,3,201222075531,"1800 BLOCK MASTER ST",300,"Robbery Firearm",-75.16676908,39.97551667,39.97551667,-75.16676908,"2012","Y"
"291",92530,"08","3",2012-11-20 02:53:00,2012-11-19,21:53:00,21,201208048041,"3200 BLOCK WOODHAVEN RD",300,"Robbery Firearm",-74.98434724,40.09782291,40.09782291,-74.98434724,"2012","Y"
"292",92542,"22","1",2012-08-25 02:08:00,2012-08-24,22:08:00,22,201222071557,"2300 BLOCK N 17TH ST",400,"Aggravated Assault Firearm",-75.16069692,39.98850421,39.98850421,-75.16069692,"2012","Y"
"293",92552,"15","3",2012-06-16 06:55:00,2012-06-16,02:55:00,2,201215056383,"4000 BLOCK COTTMAN SVE",300,"Robbery Firearm",-75.04002543,40.03608862,40.03608862,-75.04002543,"2012","Y"
"294",92553,"07","2",2012-09-30 03:36:00,2012-09-29,23:36:00,23,201207035057,"1900 BLOCK AMBASSADOR ST",400,"Aggravated Assault Firearm",-75.03880472,40.07921897,40.07921897,-75.03880472,"2012","Y"
"295",92554,"07","2",2012-09-30 05:35:00,2012-09-30,01:35:00,1,201207035064,"1900 BLOCK AMBASSADOR ST",400,"Aggravated Assault Firearm",-75.03880472,40.07921897,40.07921897,-75.03880472,"2012","Y"
"296",92581,"25","2",2012-09-11 23:19:00,2012-09-11,19:19:00,19,201225075197,"4000 BLOCK N 06TH ST",400,"Aggravated Assault Firearm",-75.13750549,40.01371972,40.01371972,-75.13750549,"2012","Y"
"297",92590,"39","3",2012-09-25 01:40:00,2012-09-24,21:40:00,21,201239065166,"2000 BLOCK W WESTMORELAND ST",300,"Robbery Firearm",-75.16206158,40.00441944,40.00441944,-75.16206158,"2012","Y"
"298",92595,"26","1",2012-10-29 12:22:00,2012-10-29,08:22:00,8,201226056569,"2300 BLOCK WATERLOO ST",300,"Robbery Firearm",-75.13372083,39.98501925,39.98501925,-75.13372083,"2012","Y"
"299",92602,"01","1",2012-07-09 20:37:00,2012-07-09,16:37:00,16,201201031623,"2200 BLOCK S 22ND ST",400,"Aggravated Assault Firearm",-75.18302694,39.92482186,39.92482186,-75.18302694,"2012","Y"
"300",92628,"22","1",2012-08-09 05:14:00,2012-08-09,01:14:00,1,201222066578,"2600 BLOCK N SARTAIN ST",400,"Aggravated Assault Firearm",-75.15067625,39.99181058,39.99181058,-75.15067625,"2012","Y"
"301",92288,"14","2",2012-12-12 19:21:00,2012-12-12,14:21:00,14,201214092920,"100 BLOCK MAYLAND ST",300,"Robbery Firearm",-75.17705158,40.04586152,40.04586152,-75.17705158,"2012","Y"
"302",92147,"06","3",2012-09-27 05:56:00,2012-09-27,01:56:00,1,201206047968,"1300 BLOCK WALNUT ST",400,"Aggravated Assault Firearm",-75.16211706,39.94908961,39.94908961,-75.16211706,"2012","Y"
"303",92156,"12","2",2012-06-28 01:46:00,2012-06-27,21:46:00,21,201212047399,"6000 BLOCK REINHARD ST",400,"Aggravated Assault Firearm",-75.22979292,39.93217156,39.93217156,-75.22979292,"2012","Y"
"304",92163,"22","3",2012-10-01 23:33:00,2012-10-01,19:33:00,19,201222083010,"1900 BLOCK JEFFERSON ST",300,"Robbery Firearm",-75.16646526,39.9768867,39.9768867,-75.16646526,"2012","Y"
"305",92164,"25","2",2012-11-30 02:51:00,2012-11-29,21:51:00,21,201225099248,"4800 BLOCK GRANSBACK ST",300,"Robbery Firearm",-75.11535487,40.02202386,40.02202386,-75.11535487,"2012","Y"
"306",92317,"17","3",2012-08-23 23:28:00,2012-08-23,19:28:00,19,201217040352,"1700 BLOCK TASKER ST",400,"Aggravated Assault Firearm",-75.17374856,39.93118599,39.93118599,-75.17374856,"2012","Y"
"307",92182,"39","2",2012-07-07 06:47:00,2012-07-07,02:47:00,2,201239046445,"1900 BLOCK W HUNTING PARK AVE",400,"Aggravated Assault Firearm",-75.15795514,40.01402592,40.01402592,-75.15795514,"2012","Y"
"308",92339,"25","3",2012-07-07 03:37:00,2012-07-06,23:37:00,23,201225055609,"3400 BLOCK G ST",400,"Aggravated Assault Firearm",-75.11457096,40.00080902,40.00080902,-75.11457096,"2012","Y"
"309",92343,"19","1",2012-10-19 19:23:00,2012-10-19,15:23:00,15,201219087940,"6300 BLOCK CALLOWHILL ST",300,"Robbery Firearm",-75.24653471,39.96897699,39.96897699,-75.24653471,"2012","Y"
"310",92196,"18","2",2012-07-10 04:45:00,2012-07-10,00:45:00,0,201218039934,"5200 BLOCK LARCHWOOD AVE",300,"Robbery Firearm",-75.22851313,39.95226309,39.95226309,-75.22851313,"2012","Y"
"311",92214,"25","2",2012-12-06 01:51:00,2012-12-05,20:51:00,20,201225100970,"4300 BLOCK N FAIRHILL ST",400,"Aggravated Assault Firearm",-75.13657918,40.01800498,40.01800498,-75.13657918,"2012","Y"
"312",92359,"15","2",2012-12-11 02:18:00,2012-12-10,21:18:00,21,201215119198,"1600 BLOCK CRESTON ST",300,"Robbery Firearm",-75.07635124,40.03219302,40.03219302,-75.07635124,"2012","Y"
"313",90606,"24","1",2012-11-25 07:37:00,2012-11-25,02:37:00,2,201224104322,"3400 BLOCK H ST",400,"Aggravated Assault Firearm",-75.1124929,40.00009073,40.00009073,-75.1124929,"2012","Y"
"314",91438,"14","3",2012-11-10 00:20:00,2012-11-09,19:20:00,19,201214084794,"6100 BLOCK GERMANTOWN AVE",300,"Robbery Firearm",-75.17913156,40.04107435,40.04107435,-75.17913156,"2012","Y"
"315",91020,"39","1",2012-11-26 15:04:00,2012-11-26,10:04:00,10,201239078612,"3600 BLOCK HAYWOOD ST",400,"Aggravated Assault Firearm",-75.19034431,40.00927122,40.00927122,-75.19034431,"2012","Y"
"316",91027,"24","3",2012-12-08 06:39:00,2012-12-08,01:39:00,1,201224107973,"2300 BLOCK E CLEARFIELD ST",300,"Robbery Firearm",-75.10878836,39.98724498,39.98724498,-75.10878836,"2012","Y"
"317",91646,"24","1",2012-08-10 14:19:00,2012-08-10,10:19:00,10,201224071199,"1800 BLOCK CLARENCE ST",400,"Aggravated Assault Firearm",-75.1050908,39.99972493,39.99972493,-75.1050908,"2012","Y"
"318",91656,"08","1",2012-06-11 20:35:00,2012-06-11,16:35:00,16,201208024905,"2800 BLOCK WALNUT HILL ST",400,"Aggravated Assault Firearm",-75.02892915,40.05993075,40.05993075,-75.02892915,"2012","Y"
"319",91900,"15","3",2012-08-06 04:32:00,2012-08-06,00:32:00,0,201215075597,"4300 BLOCK PRINCETON AVE",300,"Robbery Firearm",-75.04209065,40.03182578,40.03182578,-75.04209065,"2012","Y"
"320",91902,"39","1",2012-09-16 05:08:00,2012-09-16,01:08:00,1,201239063397,"3400 BLOCK W SCHOOL HOUSE LN",300,"Robbery Firearm",-75.19441298,40.01865807,40.01865807,-75.19441298,"2012","Y"
"321",91913,"25","2",2012-12-31 03:59:00,2012-12-30,22:59:00,22,201225107429,"4500 BLOCK N 08TH ST",400,"Aggravated Assault Firearm",-75.13897989,40.02078698,40.02078698,-75.13897989,"2012","Y"
"322",91914,"25","2",2012-09-19 05:02:00,2012-09-19,01:02:00,1,201225077528,"4400 BLOCK N MARSHALL ST",300,"Robbery Firearm",-75.137596,40.01853974,40.01853974,-75.137596,"2012","Y"
"323",91669,"26","2",2012-10-31 22:32:00,2012-10-31,18:32:00,18,201226056983,"100 BLOCK W PALMER ST",400,"Aggravated Assault Firearm",-75.13600577,39.97659178,39.97659178,-75.13600577,"2012","Y"
"324",91923,"22","1",2012-10-07 06:56:00,2012-10-07,02:56:00,2,201222084919,"2400 BLOCK N BROAD ST",300,"Robbery Firearm",-75.15559505,39.98937857,39.98937857,-75.15559505,"2012","Y"
"325",91931,"39","2",2012-06-01 06:58:00,2012-06-01,02:58:00,2,201239036265,"3300 BLOCK N UBER ST",400,"Aggravated Assault Firearm",-75.16124473,40.00431559,40.00431559,-75.16124473,"2012","Y"
"326",91938,"25","1",2012-07-18 11:39:00,2012-07-18,07:39:00,7,201225058819,"3500 BLOCK N 07TH ST",400,"Aggravated Assault Firearm",-75.14099449,40.00553687,40.00553687,-75.14099449,"2012","Y"
"327",90918,"24","1",2012-06-24 18:32:00,2012-06-24,14:32:00,14,201224055295,"2000 BLOCK E TIOGA ST",400,"Aggravated Assault Firearm",-75.10433847,39.99789358,39.99789358,-75.10433847,"2012","Y"
"328",91068,"39","2",2012-09-12 06:07:00,2012-09-12,02:07:00,2,201239062423,"4000 BLOCK GERMANTOWN AVE",300,"Robbery Firearm",-75.15307253,40.01443529,40.01443529,-75.15307253,"2012","Y"
"329",91069,"12","3",2012-12-09 05:11:00,2012-12-09,00:11:00,0,201212091481,"6500 BLOCK GUYER AVE",300,"Robbery Firearm",-75.22704596,39.91944153,39.91944153,-75.22704596,"2012","Y"
"330",91947,"01","1",2012-12-28 21:56:00,2012-12-28,16:56:00,16,201201060602,"2000 BLOCK S HEMBERGER ST",400,"Aggravated Assault Firearm",-75.18356905,39.92742261,39.92742261,-75.18356905,"2012","Y"
"331",91965,"18","2",2012-08-11 13:29:00,2012-08-11,09:29:00,9,201218046831,"100 BLOCK S 52ND ST",300,"Robbery Firearm",-75.22535459,39.95772381,39.95772381,-75.22535459,"2012","Y"
"332",91117,"22","1",2012-08-17 02:04:00,2012-08-16,22:04:00,22,201222068966,"1200 BLOCK W DAUPHIN ST",400,"Aggravated Assault Firearm",-75.15266981,39.987466,39.987466,-75.15266981,"2012","Y"
"333",92021,"25","1",2012-11-28 00:47:00,2012-11-27,19:47:00,19,201225098671,"3900 BLOCK N MARSHALL ST",300,"Robbery Firearm",-75.13898904,40.0108444,40.0108444,-75.13898904,"2012","Y"
"334",91134,"12","3",2012-10-07 15:32:00,2012-10-07,11:32:00,11,201212075341,"5300 BLOCK UPLAND ST",300,"Robbery Firearm",-75.22073454,39.93785992,39.93785992,-75.22073454,"2012","Y"
"335",91135,"15","1",2012-11-13 03:57:00,2012-11-12,22:57:00,22,201215110097,"5200 BLOCK CASTOR AVE",400,"Aggravated Assault Firearm",-75.08821187,40.02821143,40.02821143,-75.08821187,"2012","Y"
"336",92058,"02","3",2012-07-11 22:06:00,2012-07-11,18:06:00,18,201202047991,"2000 BLOCK LANSING ST",300,"Robbery Firearm",-75.06029202,40.05747058,40.05747058,-75.06029202,"2012","Y"
"337",92070,"24","3",2012-11-14 01:05:00,2012-11-13,20:05:00,20,201224101078,"3400 BLOCK ARAMINGO AVE",300,"Robbery Firearm",-75.10160531,39.99100354,39.99100354,-75.10160531,"2012","Y"
"338",91159,"17","3",2012-12-17 19:42:00,2012-12-17,14:42:00,14,201217059011,"1500 BLOCK TASKER ST",300,"Robbery Firearm",-75.17005029,39.93070319,39.93070319,-75.17005029,"2012","Y"
"339",91785,"25","3",2012-08-08 22:21:00,2012-08-08,18:21:00,18,201225065223,"600 BLOCK E THAYER ST",400,"Aggravated Assault Firearm",-75.11876565,39.99996005,39.99996005,-75.11876565,"2012","Y"
"340",91986,"01","1",2012-10-24 01:44:00,2012-10-23,21:44:00,21,201201050250,"2000 BLOCK MERCY ST",400,"Aggravated Assault Firearm",-75.17914706,39.92605202,39.92605202,-75.17914706,"2012","Y"
"341",91995,"02","3",2012-07-21 10:14:00,2012-07-21,06:14:00,6,201202050014,"7700 BLOCK DUNGAN RD",300,"Robbery Firearm",-75.07330666,40.0628212,40.0628212,-75.07330666,"2012","Y"
"342",91827,"39","2",2012-07-01 03:43:00,2012-06-30,23:43:00,23,201239044715,"4000 BLOCK GERMANTOWN AVE",400,"Aggravated Assault Firearm",-75.15385245,40.01590102,40.01590102,-75.15385245,"2012","Y"
"343",92036,"24","3",2012-11-25 23:40:00,2012-11-25,18:40:00,18,201224104460,"2900 BLOCK CEDAR ST",300,"Robbery Firearm",-75.1129662,39.98437426,39.98437426,-75.1129662,"2012","Y"
"344",92043,"12","4",2012-09-02 21:34:00,2012-09-02,17:34:00,17,201212065827,"1600 BLOCK S FRAZIER ST",400,"Aggravated Assault Firearm",-75.22783358,39.93808651,39.93808651,-75.22783358,"2012","Y"
"345",92047,"39","3",2012-10-04 05:46:00,2012-10-04,01:46:00,1,201239067275,"3000 BLOCK N STILLMAN ST",300,"Robbery Firearm",-75.17191389,40.00089236,40.00089236,-75.17191389,"2012","Y"
"346",90342,"24","3",2012-11-10 09:05:00,2012-11-10,04:05:00,4,201224100015,"3300 BLOCK ARAMINGO AVE",300,"Robbery Firearm",-75.10390548,39.98980562,39.98980562,-75.10390548,"2012","Y"
"347",90357,"12","1",2012-10-24 03:36:00,2012-10-23,23:36:00,23,201212080064,"7500 BLOCK ELMWOOD AV",300,"Robbery Firearm",-75.24602445,39.91115725,39.91115725,-75.24602445,"2012","Y"
"348",91837,"12","1",2012-08-16 02:27:00,2012-08-15,22:27:00,22,201212061024,"7800 BLOCK BUIST AVE",300,"Robbery Firearm",-75.24741617,39.90617128,39.90617128,-75.24741617,"2012","Y"
"349",91847,"24","1",2012-06-11 06:19:00,2012-06-11,02:19:00,2,201224050574,"2200 BLOCK CASTOR AVE",300,"Robbery Firearm",-75.09706939,39.99752728,39.99752728,-75.09706939,"2012","Y"
"350",90626,"06","2",2012-12-23 02:01:00,2012-12-22,21:01:00,21,201206062951,"1000 BLOCK RACE ST",400,"Aggravated Assault Firearm",-75.15589625,39.9553875,39.9553875,-75.15589625,"2012","Y"
"351",91876,"15","1",2012-06-28 16:43:00,2012-06-28,12:43:00,12,201215061323,"1300 BLOCK FOULKROD ST",300,"Robbery Firearm",-75.08728481,40.02049429,40.02049429,-75.08728481,"2012","Y"
"352",90650,"35","2",2012-06-17 06:56:00,2012-06-17,02:56:00,2,201235047534,"4600 BLOCK N 12TH ST",400,"Aggravated Assault Firearm",-75.14449081,40.02249308,40.02249308,-75.14449081,"2012","Y"
"353",90659,"25","1",2012-07-13 06:20:00,2012-07-13,02:20:00,2,201225057337,"3100 BLOCK N 13TH ST",400,"Aggravated Assault Firearm",-75.15085478,40.00072389,40.00072389,-75.15085478,"2012","Y"
"354",90410,"19","2",2012-06-27 22:38:00,2012-06-27,18:38:00,18,201219051708,"200 BLOCK N EDGEWOOD ST",400,"Aggravated Assault Firearm",-75.24101043,39.96562753,39.96562753,-75.24101043,"2012","Y"
"355",91276,"39","3",2012-10-11 04:47:00,2012-10-11,00:47:00,0,201239068868,"3100 BLOCK N 24TH ST",300,"Robbery Firearm",-75.16944208,40.00210973,40.00210973,-75.16944208,"2012","Y"
"356",91449,"01","1",2012-10-14 00:12:00,2012-10-13,20:12:00,20,201201048350,"2200 BLOCK S CHADWICK ST",400,"Aggravated Assault Firearm",-75.17425074,39.92370583,39.92370583,-75.17425074,"2012","Y"
"357",91450,"01","1",2012-12-12 23:30:00,2012-12-12,18:30:00,18,201201058241,"2200 BLOCK S CHADWICK ST",400,"Aggravated Assault Firearm",-75.17425074,39.92370583,39.92370583,-75.17425074,"2012","Y"
"358",90675,"17","3",2012-12-20 05:15:00,2012-12-20,00:15:00,0,201217059492,"1800 BLOCK MOUNTAIN ST",300,"Robbery Firearm",-75.17651485,39.93072513,39.93072512,-75.17651485,"2012","Y"
"359",90684,"24","1",2012-10-19 01:51:00,2012-10-18,21:51:00,21,201224093562,"1800 BLOCK E CORNWALL ST",300,"Robbery Firearm",-75.11042142,39.99813392,39.99813391,-75.11042142,"2012","Y"
"360",90693,"06","3",2012-12-30 07:23:00,2012-12-30,02:23:00,2,201206063824,"1200 BLOCK PANAMA ST",300,"Robbery Firearm",-75.16129118,39.94541814,39.94541814,-75.16129118,"2012","Y"
"361",90695,"14","2",2012-07-30 23:48:00,2012-07-30,19:48:00,19,201214057952,"100 BLOCK HERMAN ST",400,"Aggravated Assault Firearm",-75.1771572,40.04299714,40.04299714,-75.1771572,"2012","Y"
"362",90699,"35","2",2012-08-26 05:41:00,2012-08-26,01:41:00,1,201235066937,"4900 BLOCK RISING SUN AVE",300,"Robbery Firearm",-75.12184514,40.02616496,40.02616496,-75.12184514,"2012","Y"
"363",90445,"15","1",2012-06-28 16:40:00,2012-06-28,12:40:00,12,201215061318,"1600 BLOCK CONKLIN ST",300,"Robbery Firearm",-75.07762997,40.02119067,40.02119067,-75.07762997,"2012","Y"
"364",91494,"02","2",2012-08-22 07:02:00,2012-08-22,03:02:00,3,201202057142,"500 BLOCK E CHELTENHAM AVE",300,"Robbery Firearm",-75.10433532,40.04290912,40.04290912,-75.10433532,"2012","Y"
"365",91501,"25","3",2012-10-01 13:09:00,2012-10-01,09:09:00,9,201225081585,"2900 BLOCK N 03RD ST",400,"Aggravated Assault Firearm",-75.13634877,39.99629792,39.99629792,-75.13634877,"2012","Y"
"366",90464,"18","3",2012-12-14 01:27:00,2012-12-13,20:27:00,20,201218072731,"300 BLOCK S 40TH ST",300,"Robbery Firearm",-75.20319238,39.95121253,39.95121253,-75.20319238,"2012","Y"
"367",90472,"35","1",2012-08-05 09:00:00,2012-08-05,05:00:00,4,201235061314,"6200 BLOCK N 05TH ST",300,"Robbery Firearm",-75.12849829,40.0456356,40.0456356,-75.12849829,"2012","Y"
"368",91338,"14","1",2012-10-09 17:11:00,2012-10-09,13:11:00,13,201214076532,"1100 BLOCK WOODLAWN AVE",300,"Robbery Firearm",-75.15907837,40.049342,40.049342,-75.15907837,"2012","Y"
"369",91508,"22","4",2012-06-19 20:03:00,2012-06-19,16:03:00,16,201222050699,"1700 BLOCK N NEWKIRK ST",300,"Robbery Firearm",-75.18083827,39.98165111,39.98165111,-75.18083827,"2012","Y"
"370",91527,"12","3",2012-07-14 03:43:00,2012-07-13,23:43:00,23,201212051872,"5500 BLOCK LINMORE AVE",400,"Aggravated Assault Firearm",-75.21992092,39.93329395,39.93329395,-75.21992092,"2012","Y"
"371",90491,"08","3",2012-11-28 08:08:00,2012-11-28,03:08:00,3,201208049057,"11900 BLOCK ACADEMY RD",300,"Robbery Firearm",-74.98292629,40.09118981,40.09118981,-74.98292629,"2012","Y"
"372",90496,"14","1",2012-12-13 16:53:00,2012-12-13,11:53:00,11,201214093177,"1200 BLOCK E CHELTEN AVE",300,"Robbery Firearm",-75.15904286,40.0511156,40.0511156,-75.15904286,"2012","Y"
"373",91348,"26","2",2012-06-14 19:48:00,2012-06-14,15:48:00,15,201226031834,"1300 BLOCK N MARSHALL ST",400,"Aggravated Assault Firearm",-75.14710784,39.97167332,39.97167332,-75.14710784,"2012","Y"
"374",91357,"18","1",2012-07-01 05:06:00,2012-07-01,01:06:00,1,201218037850,"5700 BLOCK DELANCEY ST",400,"Aggravated Assault Firearm",-75.23805369,39.95553247,39.95553247,-75.23805369,"2012","Y"
"375",91538,"15","1",2012-12-08 02:34:00,2012-12-07,21:34:00,21,201215118170,"5200 BLOCK HAWTHORNE ST",400,"Aggravated Assault Firearm",-75.07545263,40.02005651,40.02005651,-75.07545263,"2012","Y"
"376",91544,"18","1",2012-09-15 00:23:00,2012-09-14,20:23:00,20,201218054362,"5900 BLOCK CHRISTIAN ST",400,"Aggravated Assault Firearm",-75.24140776,39.94918021,39.94918021,-75.24140776,"2012","Y"
"377",91552,"08","3",2012-06-07 00:54:00,2012-06-06,20:54:00,20,201208024050,"12400 BLOCK ACADEMY RD",300,"Robbery Firearm",-74.97577353,40.09642148,40.09642148,-74.97577353,"2012","Y"
"378",90764,"18","2",2012-08-24 02:00:00,2012-08-23,22:00:00,22,201218049549,"5500 BLOCK SPRUCE ST",400,"Aggravated Assault Firearm",-75.23289229,39.95544669,39.95544669,-75.23289229,"2012","Y"
"379",90768,"02","1",2012-09-22 02:36:00,2012-09-21,22:36:00,22,201202064532,"5500 BLOCK LORETTO AV",400,"Aggravated Assault Firearm",-75.08985662,40.03104563,40.03104562,-75.08985662,"2012","Y"
"380",91367,"14","1",2012-06-28 04:30:00,2012-06-28,00:30:00,0,201214049162,"2100 BLOCK EASTBURN AVE",300,"Robbery Firearm",-75.15553274,40.05622549,40.05622549,-75.15553274,"2012","Y"
"381",91391,"17","1",2012-10-14 01:23:00,2012-10-13,21:23:00,21,201217049315,"2100 BLOCK FITZWATER ST",400,"Aggravated Assault Firearm",-75.17737734,39.9432403,39.9432403,-75.17737734,"2012","Y"
"382",91584,"12","4",2012-10-05 15:45:00,2012-10-05,11:45:00,11,201212074721,"1400 BLOCK S 55TH ST",300,"Robbery Firearm",-75.22548293,39.93973425,39.93973425,-75.22548293,"2012","Y"
"383",90786,"15","1",2012-11-05 22:54:00,2012-11-05,17:54:00,17,201215107812,"5100 BLOCK OXFORD AV",300,"Robbery Firearm",-75.08462305,40.02505097,40.02505097,-75.08462305,"2012","Y"
"384",90806,"14","1",2012-10-19 00:32:00,2012-10-18,20:32:00,20,201214079114,"7400 BLOCK OGONTZ AVE",300,"Robbery Firearm",-75.1567779,40.06868446,40.06868446,-75.1567779,"2012","Y"
"385",91403,"26","3",2012-10-17 03:41:00,2012-10-16,23:41:00,23,201226054354,"2300 BLOCK E SERGEANT ST",300,"Robbery Firearm",-75.12265892,39.9816431,39.98164309,-75.12265892,"2012","Y"
"386",91405,"18","2",2012-07-20 16:59:00,2012-07-20,12:59:00,12,201218042057,"5600 BLOCK PEMBERTON ST",400,"Aggravated Assault Firearm",-75.23496835,39.95090866,39.95090866,-75.23496835,"2012","Y"
"387",90582,"35","2",2012-12-20 04:19:00,2012-12-19,23:19:00,23,201235097024,"5300 BLOCK N 05TH ST",300,"Robbery Firearm",-75.13139595,40.03236134,40.03236134,-75.13139595,"2012","Y"
"388",95723,"17","3",2012-06-16 19:08:00,2012-06-16,15:08:00,15,201217028920,"2300 BLOCK MOUNTAIN ST",400,"Aggravated Assault Firearm",-75.18488722,39.93179766,39.93179766,-75.18488722,"2012","Y"
"389",95733,"25","1",2012-10-29 23:10:00,2012-10-29,19:10:00,19,201225090479,"1200 BLOCK W HILTON ST",400,"Aggravated Assault Firearm",-75.15056015,40.00203738,40.00203738,-75.15056015,"2012","Y"
"390",96637,"07","3",2012-12-01 00:24:00,2012-11-30,19:24:00,19,201207042306,"11000 BLOCK BUSTLETON AV",300,"Robbery Firearm",-75.0216149,40.11486572,40.11486572,-75.0216149,"2012","Y"
"391",95867,"14","1",2012-09-01 07:11:00,2012-09-01,03:11:00,3,201214066577,"7800 BLOCK THOURON AVE",400,"Aggravated Assault Firearm",-75.1667269,40.07017439,40.07017439,-75.1667269,"2012","Y"
"392",96128,"18","1",2012-06-22 17:51:00,2012-06-22,13:51:00,13,201218036028,"5800 BLOCK LARCHWOOD AVE",400,"Aggravated Assault Firearm",-75.23847976,39.95349449,39.95349449,-75.23847976,"2012","Y"
"393",96135,"26","3",2012-09-23 16:42:00,2012-09-23,12:42:00,12,201226050281,"2100 BLOCK E YORK ST",300,"Robbery Firearm",-75.12855559,39.9824891,39.9824891,-75.12855559,"2012","Y"
"394",96143,"12","2",2012-06-15 17:32:00,2012-06-15,13:32:00,13,201212043601,"S 63RD ST  /  GREENWAY AV",300,"Robbery Firearm",-75.23297675,39.92847538,39.92847538,-75.23297675,"2012","Y"
"395",96146,"03","1",2012-08-11 02:35:00,2012-08-10,22:35:00,22,201203052201,"S 02ND ST  /  CATHARINE ST",400,"Aggravated Assault Firearm",-75.14644642,39.93762188,39.93762188,-75.14644642,"2012","Y"
"396",95929,"22","3",2012-10-07 09:19:00,2012-10-07,05:19:00,5,201222084946,"1200 BLOCK W THOMPSON ST",400,"Aggravated Assault Firearm",-75.15689598,39.97293615,39.97293615,-75.15689598,"2012","Y"
"397",96152,"14","2",2012-12-15 04:46:00,2012-12-14,23:46:00,23,201214093675,"100 BLOCK E CHELTEN AVE",400,"Aggravated Assault Firearm",-75.17162107,40.03885693,40.03885693,-75.17162107,"2012","Y"
"398",97247,"18","2",2012-07-20 16:59:00,2012-07-20,12:59:00,12,201218042059,"5600 BLOCK PEMBERTON ST",400,"Aggravated Assault Firearm",-75.23496835,39.95090866,39.95090866,-75.23496835,"2012","Y"
"399",97248,"18","2",2012-07-20 17:00:00,2012-07-20,13:00:00,13,201218042060,"5600 BLOCK PEMBERTON ST",400,"Aggravated Assault Firearm",-75.23496835,39.95090866,39.95090866,-75.23496835,"2012","Y"
"400",97255,"22","4",2012-06-08 01:17:00,2012-06-07,21:17:00,21,201222046993,"1500 BLOCK N 24TH ST",400,"Aggravated Assault Firearm",-75.17463378,39.97831657,39.97831657,-75.17463378,"2012","Y"
"401",97256,"22","4",2012-06-08 01:41:00,2012-06-07,21:41:00,21,201222047023,"1500 BLOCK N 24TH ST",400,"Aggravated Assault Firearm",-75.17463378,39.97831657,39.97831657,-75.17463378,"2012","Y"
"402",95937,"26","1",2012-10-06 22:28:00,2012-10-06,18:28:00,18,201226052710,"2600 BLOCK N LAWRENCE ST",400,"Aggravated Assault Firearm",-75.13961752,39.99038544,39.99038544,-75.13961752,"2012","Y"
"403",96663,"16","2",2012-07-25 20:06:00,2012-07-25,16:06:00,16,201216031940,"500 BLOCK N CREIGHTON ST",300,"Robbery Firearm",-75.22451135,39.96884853,39.96884853,-75.22451135,"2012","Y"
"404",96667,"22","3",2012-12-09 04:57:00,2012-12-08,23:57:00,23,201222103879,"1800 BLOCK N 20TH ST",400,"Aggravated Assault Firearm",-75.16707926,39.98146312,39.98146312,-75.16707926,"2012","Y"
"405",96684,"15","1",2012-10-28 23:07:00,2012-10-28,19:07:00,19,201215105218,"1100 BLOCK FILLMORE ST",300,"Robbery Firearm",-75.08992165,40.02273963,40.02273963,-75.08992165,"2012","Y"
"406",97013,"14","1",2012-12-11 03:40:00,2012-12-10,22:40:00,22,201214092384,"2300 BLOCK W 74TH AVE",300,"Robbery Firearm",-75.1562885,40.06701572,40.06701572,-75.1562885,"2012","Y"
"407",96254,"35","2",2012-11-08 10:10:00,2012-11-08,05:10:00,5,201235086964,"5400 BLOCK N 05TH ST",300,"Robbery Firearm",-75.13116524,40.03340112,40.03340112,-75.13116524,"2012","Y"
"408",96714,"14","2",2012-12-10 17:36:00,2012-12-10,12:36:00,12,201214092227,"100 BLOCK W WASHINGTON LA",300,"Robbery Firearm",-75.18310397,40.0410725,40.0410725,-75.18310397,"2012","Y"
"409",96730,"18","2",2012-08-25 01:35:00,2012-08-24,21:35:00,21,201218049744,"5400 BLOCK WALNUT ST",400,"Aggravated Assault Firearm",-75.22928649,39.95742896,39.95742896,-75.22928648,"2012","Y"
"410",97059,"35","3",2012-08-25 03:06:00,2012-08-24,23:06:00,23,201235066568,"N 16TH ST  /  CHURCH LA",300,"Robbery Firearm",-75.14647053,40.04623216,40.04623216,-75.14647053,"2012","Y"
"411",96014,"26","1",2012-11-07 20:28:00,2012-11-07,15:28:00,15,201226057940,"2600 BLOCK N 05TH ST",300,"Robbery Firearm",-75.14054622,39.99050757,39.99050757,-75.14054621,"2012","Y"
"412",96266,"18","2",2012-06-13 15:11:00,2012-06-13,11:11:00,11,201218033888,"5200 BLOCK CEDAR AV",300,"Robbery Firearm",-75.22687136,39.95046987,39.95046987,-75.22687136,"2012","Y"
"413",96315,"18","2",2012-08-24 01:59:00,2012-08-23,21:59:00,21,201218049548,"5500 BLOCK SPRUCE ST",400,"Aggravated Assault Firearm",-75.23289229,39.95544669,39.95544669,-75.23289229,"2012","Y"
"414",97104,"35","1",2012-08-31 06:44:00,2012-08-31,02:44:00,2,201235068195,"100 BLOCK WENTZ ST",300,"Robbery Firearm",-75.12128169,40.0359204,40.0359204,-75.12128169,"2012","Y"
"415",97106,"12","1",2012-10-17 04:54:00,2012-10-17,00:54:00,0,201212078004,"S 69TH ST  /  DICKS AV",300,"Robbery Firearm",-75.23326926,39.91583476,39.91583476,-75.23326926,"2012","Y"
"416",97117,"14","1",2012-10-10 04:26:00,2012-10-10,00:26:00,0,201214076725,"6400 BLOCK WISTER ST",400,"Aggravated Assault Firearm",-75.15774904,40.0523821,40.0523821,-75.15774904,"2012","Y"
"417",96337,"07","3",2012-09-22 02:38:00,2012-09-21,22:38:00,22,201207034174,"10900 BLOCK BUSTLETON AV",300,"Robbery Firearm",-75.02304457,40.11300719,40.11300719,-75.02304457,"2012","Y"
"418",96808,"07","3",2012-10-21 04:47:00,2012-10-21,00:47:00,0,201207037399,"10900 BLOCK BUSTLETON AVE",400,"Aggravated Assault Firearm",-75.02304457,40.11300719,40.11300719,-75.02304457,"2012","Y"
"419",97143,"24","2",2012-10-23 00:38:00,2012-10-22,20:38:00,20,201224094768,"3100 BLOCK E ST",400,"Aggravated Assault Firearm",-75.11943142,39.99677815,39.99677815,-75.11943142,"2012","Y"
"420",95561,"25","2",2012-11-07 02:52:00,2012-11-06,21:52:00,21,201225092723,"500 BLOCK E THELMA ST",400,"Aggravated Assault Firearm",-75.11635974,40.01947221,40.01947221,-75.11635974,"2012","Y"
"421",97159,"14","1",2012-11-09 21:19:00,2012-11-09,16:19:00,16,201214084743,"1200 BLOCK E CLIVEDEN ST",400,"Aggravated Assault Firearm",-75.17146642,40.05866179,40.05866179,-75.17146643,"2012","Y"
"422",97165,"16","1",2012-09-27 19:12:00,2012-09-27,15:12:00,15,201216041545,"4000 BLOCK POPLAR ST",400,"Aggravated Assault Firearm",-75.20617448,39.97247786,39.97247786,-75.20617448,"2012","Y"
"423",97167,"39","2",2012-09-23 16:58:00,2012-09-23,12:58:00,12,201239064904,"1800 BLOCK W ATLANTIC ST",400,"Aggravated Assault Firearm",-75.15888938,40.00785022,40.00785022,-75.15888938,"2012","Y"
"424",95583,"26","1",2012-06-17 16:34:00,2012-06-17,12:34:00,12,201226032421,"WATERLOO ST  /  W YORK ST",300,"Robbery Firearm",-75.13340096,39.98651558,39.98651558,-75.13340096,"2012","Y"
"425",95587,"12","3",2012-09-19 00:25:00,2012-09-18,20:25:00,20,201212070205,"5100 BLOCK GREENWAY AV",400,"Aggravated Assault Firearm",-75.21692927,39.93978145,39.93978145,-75.21692927,"2012","Y"
"426",95599,"25","3",2012-12-18 06:59:00,2012-12-18,01:59:00,1,201225104237,"500 BLOCK E CORNWALL ST",400,"Aggravated Assault Firearm",-75.12032584,39.99963769,39.99963769,-75.12032584,"2012","Y"
"427",95617,"01","1",2012-11-05 20:46:00,2012-11-05,15:46:00,15,201201052428,"2100 BLOCK OREGON AVE",300,"Robbery Firearm",-75.18437758,39.91857226,39.91857226,-75.18437758,"2012","Y"
"428",96561,"24","2",2012-10-23 23:03:00,2012-10-23,19:03:00,19,201224095030,"2800 BLOCK N FRONT ST",300,"Robbery Firearm",-75.13056151,39.99248384,39.99248383,-75.13056151,"2012","Y"
"429",95802,"19","2",2012-08-13 19:01:00,2012-08-13,15:01:00,15,201219066641,"0 BLOCK N SALFORD ST",300,"Robbery Firearm",-75.23985226,39.96269116,39.96269116,-75.23985226,"2012","Y"
"430",95812,"22","2",2012-09-30 21:20:00,2012-09-30,17:20:00,17,201222082689,"2600 BLOCK W LEHIGH AVE",400,"Aggravated Assault Firearm",-75.17554124,39.99664838,39.99664838,-75.17554124,"2012","Y"
"431",96478,"02","1",2012-12-24 22:47:00,2012-12-24,17:47:00,17,201202085982,"6800 BLOCK BUSTLETON AV",300,"Robbery Firearm",-75.06496273,40.04106898,40.04106897,-75.06496273,"2012","Y"
"432",96574,"22","1",2012-12-09 04:56:00,2012-12-08,23:56:00,23,201222103878,"1800 BLOCK N 20TH ST",400,"Aggravated Assault Firearm",-75.16707926,39.98146312,39.98146312,-75.16707926,"2012","Y"
"433",95700,"17","3",2012-07-05 22:26:00,2012-07-05,18:26:00,18,201217032268,"1200 BLOCK S 17TH STREET",400,"Aggravated Assault Firearm",-75.17201851,39.93649488,39.93649488,-75.1720185,"2012","Y"
"434",96598,"35","2",2012-06-17 06:53:00,2012-06-17,02:53:00,2,201235047530,"4600 BLOCK N 12TH ST",400,"Aggravated Assault Firearm",-75.14449081,40.02249308,40.02249308,-75.14449081,"2012","Y"
"435",94365,"14","2",2012-05-14 02:27:00,2012-05-13,22:27:00,22,201214036177,"200 BLOCK E SHARPNACK ST",300,"Robbery Firearm",-75.18064358,40.05258292,40.05258292,-75.18064358,"2012","Y"
"436",95167,"19","1",2012-07-08 02:44:00,2012-07-07,22:44:00,22,201219055104,"6300 BLOCK ARCH ST",300,"Robbery Firearm",-75.24744917,39.96439999,39.96439999,-75.24744917,"2012","Y"
"437",95466,"24","2",2012-08-25 13:32:00,2012-08-25,09:32:00,9,201224076032,"3100 BLOCK KENSINGTON AVE",300,"Robbery Firearm",-75.11578148,39.99517671,39.99517671,-75.11578148,"2012","Y"
"438",95220,"22","4",2012-09-27 23:36:00,2012-09-27,19:36:00,19,201222081822,"2500 BLOCK NICHOLAS ST",400,"Aggravated Assault Firearm",-75.17579064,39.98050377,39.98050377,-75.17579064,"2012","Y"
"439",95531,"25","1",2012-11-09 01:05:00,2012-11-08,20:05:00,20,201225093214,"500 BLOCK W GLENWOOD AVE",300,"Robbery Firearm",-75.13937844,40.00223231,40.00223231,-75.13937844,"2012","Y"
"440",94674,"06","1",2012-11-11 07:30:00,2012-11-11,02:30:00,2,201206055962,"600 BLOCK N 06TH ST",300,"Robbery Firearm",-75.14779959,39.96353615,39.96353615,-75.14779959,"2012","Y"
"441",99202,"39","2",2012-09-08 05:24:00,2012-09-08,01:24:00,1,201239061556,"2200 BLOCK W VENANGO ST",400,"Aggravated Assault Firearm",-75.16618067,40.00955007,40.00955007,-75.16618067,"2012","Y"
"442",99205,"18","1",2012-07-09 04:14:00,2012-07-09,00:14:00,0,201218039747,"5900 BLOCK ADDISON ST",400,"Aggravated Assault Firearm",-75.24034857,39.95427268,39.95427268,-75.24034857,"2012","Y"
"443",99213,"01","1",2012-08-23 04:55:00,2012-08-23,00:55:00,0,201201039616,"2200 BLOCK MC KEAN ST",400,"Aggravated Assault Firearm",-75.1830718,39.92735538,39.92735538,-75.1830718,"2012","Y"
"444",100004,"14","1",2012-11-10 21:39:00,2012-11-10,16:39:00,16,201214085023,"7100 BLOCK WOOLSTON AVE",400,"Aggravated Assault Firearm",-75.1559731,40.06053489,40.06053489,-75.1559731,"2012","Y"
"445",99339,"26","1",2012-10-12 19:49:00,2012-10-12,15:49:00,15,201226053618,"2500 BLOCK HOPE ST",400,"Aggravated Assault Firearm",-75.13209737,39.98788038,39.98788038,-75.13209737,"2012","Y"
"446",99353,"25","2",2012-10-21 12:04:00,2012-10-21,08:04:00,8,201225087951,"400 BLOCK W BRISTOL ST",300,"Robbery Firearm",-75.13389754,40.01653764,40.01653764,-75.13389754,"2012","Y"
"447",99581,"24","2",2012-09-27 01:23:00,2012-09-26,21:23:00,21,201224086492,"2000 BLOCK E ORLEANS ST",300,"Robbery Firearm",-75.11548381,39.98932458,39.98932458,-75.11548381,"2012","Y"
"448",99595,"12","1",2012-10-04 00:22:00,2012-10-03,20:22:00,20,201212074211,"2500 BLOCK ASHFORD ST",400,"Aggravated Assault Firearm",-75.24503833,39.91187184,39.91187183,-75.24503833,"2012","Y"
"449",99598,"26","1",2012-09-05 16:35:00,2012-09-05,12:35:00,12,201226046946,"100 BLOCK W DAUPHIN ST",400,"Aggravated Assault Firearm",-75.13464288,39.98513787,39.98513787,-75.13464289,"2012","Y"
"450",100404,"14","1",2012-07-13 16:40:00,2012-07-13,12:40:00,12,201214053467,"7800 BLOCK ARGUS RD",400,"Aggravated Assault Firearm",-75.16211878,40.07490488,40.07490488,-75.16211878,"2012","Y"
"451",99362,"14","2",2012-07-14 02:06:00,2012-07-13,22:06:00,22,201214053590,"400 BLOCK CHURCH LN",400,"Aggravated Assault Firearm",-75.16559776,40.038944,40.038944,-75.16559776,"2012","Y"
"452",99370,"25","2",2012-09-22 07:44:00,2012-09-22,03:44:00,3,201225078690,"4900 BLOCK BINGHAM ST",300,"Robbery Firearm",-75.11356841,40.02333913,40.02333913,-75.11356841,"2012","Y"
"453",99374,"14","4",2012-08-03 00:54:00,2012-08-02,20:54:00,20,201214058718,"1100 BLOCK E MOUNT PLEASANT AVE",400,"Aggravated Assault Firearm",-75.17626895,40.0706309,40.0706309,-75.17626895,"2012","Y"
"454",99612,"39","2",2012-06-29 00:45:00,2012-06-28,20:45:00,20,201239044103,"2100 BLOCK W ONTARIO ST",400,"Aggravated Assault Firearm",-75.16363107,40.00616148,40.00616148,-75.16363107,"2012","Y"
"455",99383,"39",NA,2012-08-15 13:52:00,2012-08-15,09:52:00,9,201239055828,"1900 BLOCK W Bristol St",400,"Aggravated Assault Firearm",-75.15905215,40.01772224,40.01772224,-75.15905215,"2012","Y"
"456",99391,"18","3",2012-07-19 07:39:00,2012-07-19,03:39:00,3,201218041799,"3900 BLOCK LUDLOW ST",400,"Aggravated Assault Firearm",-75.19978821,39.9560972,39.9560972,-75.19978821,"2012","Y"
"457",99628,"15","3",2012-10-21 20:09:00,2012-10-21,16:09:00,16,201215102559,"7100 BLOCK ERDRICK ST",400,"Aggravated Assault Firearm",-75.0434365,40.03336608,40.03336608,-75.0434365,"2012","Y"
"458",99670,"24","1",2012-08-29 05:54:00,2012-08-29,01:54:00,1,201224077224,"3300 BLOCK EMERALD ST",400,"Aggravated Assault Firearm",-75.10621693,39.99623334,39.99623333,-75.10621693,"2012","Y"
"459",100146,"15","1",2012-08-21 07:21:00,2012-08-21,03:21:00,3,201215080889,"4400 BLOCK FRANKFORD AVE",300,"Robbery Firearm",-75.08635161,40.01387714,40.01387714,-75.08635161,"2012","Y"
"460",99446,"39","2",2012-09-29 00:44:00,2012-09-28,20:44:00,20,201239066083,"3500 BLOCK N 16TH ST",400,"Aggravated Assault Firearm",-75.15513719,40.00659777,40.00659777,-75.15513719,"2012","Y"
"461",99455,"35","1",2012-06-19 02:51:00,2012-06-18,22:51:00,22,201235048048,"200 BLOCK CHELTEN AVE",400,"Aggravated Assault Firearm",-75.12334117,40.04657354,40.04657354,-75.12334117,"2012","Y"
"462",99461,"39","3",2012-12-25 06:51:00,2012-12-25,01:51:00,1,201239085366,"3100 BLOCK N BROAD ST",300,"Robbery Firearm",-75.15327355,40.00001404,40.00001404,-75.15327355,"2012","Y"
"463",100159,"03","1",2012-08-31 07:04:00,2012-08-31,03:04:00,3,201203056805,"500 BLOCK KATER ST",300,"Robbery Firearm",-75.1508568,39.94139701,39.94139701,-75.1508568,"2012","Y"
"464",100164,"15","1",2012-08-18 09:12:00,2012-08-18,05:12:00,5,201215079898,"1500 BLOCK ARROTT ST",300,"Robbery Firearm",-75.08473013,40.0170643,40.0170643,-75.08473013,"2012","Y"
"465",100170,"02","3",2012-12-20 01:29:00,2012-12-19,20:29:00,20,201202084864,"7200 BLOCK OAKLEY",300,"Robbery Firearm",-75.08717235,40.06010529,40.06010529,-75.08717235,"2012","Y"
"466",99470,"35","3",2012-06-16 00:27:00,2012-06-15,20:27:00,20,201235047040,"2000 BLOCK RIDLEY ST",400,"Aggravated Assault Firearm",-75.15137797,40.05420852,40.05420852,-75.15137797,"2012","Y"
"467",99715,"24","1",2012-12-04 22:06:00,2012-12-04,17:06:00,17,201224106924,"800 BLOCK E TIOGA ST",400,"Aggravated Assault Firearm",-75.11335336,40.00124769,40.00124769,-75.11335336,"2012","Y"
"468",100192,"24","2",2012-09-22 14:35:00,2012-09-22,10:35:00,10,201224085118,"3100 BLOCK REACH ST",400,"Aggravated Assault Firearm",-75.11629947,39.99524707,39.99524707,-75.11629947,"2012","Y"
"469",99496,"19","2",2012-11-02 20:37:00,2012-11-02,16:37:00,16,201219092403,"200 BLOCK N 60TH ST",400,"Aggravated Assault Firearm",-75.23939082,39.96549572,39.96549572,-75.23939082,"2012","Y"
"470",99528,"08","2",2012-10-11 18:48:00,2012-10-11,14:48:00,14,201208042536,"2700 BLOCK GRANT AV",400,"Aggravated Assault Firearm",-75.01683821,40.07417929,40.07417929,-75.01683821,"2012","Y"
"471",99570,"17","2",2012-12-26 01:08:00,2012-12-25,20:08:00,20,201217060197,"3500 BLOCK WHARTON ST",300,"Robbery Firearm",-75.20019489,39.93856102,39.93856102,-75.20019489,"2012","Y"
"472",99812,"24","3",2012-11-13 03:27:00,2012-11-12,22:27:00,22,201224100794,"2300 BLOCK E WESTMORELAND ST",300,"Robbery Firearm",-75.10431425,39.99026287,39.99026287,-75.10431425,"2012","Y"
"473",100302,"39","1",2012-08-21 23:54:00,2012-08-21,19:54:00,19,201239057342,"2900 BLOCK W SCHOOL HOUSE LN",400,"Aggravated Assault Firearm",-75.18493571,40.02440892,40.02440892,-75.18493571,"2012","Y"
"474",100318,"24","1",2012-12-04 22:06:00,2012-12-04,17:06:00,17,201224106925,"800 BLOCK E TIOGA ST",400,"Aggravated Assault Firearm",-75.11335336,40.00124769,40.00124769,-75.11335336,"2012","Y"
"475",99076,"17","1",2012-06-19 15:11:00,2012-06-19,11:11:00,11,201217029410,"1000 BLOCK S 17TH ST",300,"Robbery Firearm",-75.17134353,39.93967246,39.93967246,-75.17134353,"2012","Y"
"476",99219,"15","2",2012-09-21 19:19:00,2012-09-21,15:19:00,15,201215092049,"1600 BLOCK HAWORTH ST",400,"Aggravated Assault Firearm",-75.07860758,40.02013603,40.02013603,-75.07860758,"2012","Y"
"477",99224,"02","1",2012-10-10 20:36:00,2012-10-10,16:36:00,16,201202068851,"6000 BLOCK LARGE ST",400,"Aggravated Assault Firearm",-75.07963799,40.03375274,40.03375274,-75.07963798,"2012","Y"
"478",99236,"15","3",2012-11-24 19:19:00,2012-11-24,14:19:00,14,201215113821,"4600 BLOCK VISTA ST",400,"Aggravated Assault Firearm",-75.03212577,40.0328181,40.0328181,-75.03212577,"2012","Y"
"479",99085,"19","1",2012-06-09 04:14:00,2012-06-09,00:14:00,0,201219045986,"6300 BLOCK OVERBROOK AVE",300,"Robbery Firearm",-75.24987702,39.9883727,39.9883727,-75.24987702,"2012","Y"
"480",99105,"35","2",2012-09-11 13:37:00,2012-09-11,09:37:00,9,201235071297,"1000 BLOCK WAGNER AVE",400,"Aggravated Assault Firearm",-75.13932636,40.03488682,40.03488681,-75.13932636,"2012","Y"
"481",99883,"18","2",2012-06-19 22:42:00,2012-06-19,18:42:00,18,201218035354,"600 BLOCK S 52ND ST",400,"Aggravated Assault Firearm",-75.22687136,39.95046987,39.95046987,-75.22687136,"2012","Y"
"482",99898,"26","3",2012-07-01 08:32:00,2012-07-01,04:32:00,4,201226035026,"2300 BLOCK E THOMPSON ST",300,"Robbery Firearm",-75.12283317,39.97494984,39.97494984,-75.12283317,"2012","Y"
"483",99899,"25","2",2012-10-17 22:10:00,2012-10-17,18:10:00,18,201225086849,"4500 BLOCK RISING SUN AVE",300,"Robbery Firearm",-75.12717191,40.01872832,40.01872832,-75.12717191,"2012","Y"
"484",99255,"24","2",2012-08-29 15:43:00,2012-08-29,11:43:00,11,201224077307,"2100 BLOCK E BIRCH ST",400,"Aggravated Assault Firearm",-75.11591092,39.98910514,39.98910514,-75.11591092,"2012","Y"
"485",99262,"25","3",2012-09-14 09:43:00,2012-09-14,05:43:00,5,201225075987,"3300 BLOCK MASCHER ST",300,"Robbery Firearm",-75.13091291,40.00039859,40.00039859,-75.13091291,"2012","Y"
"486",99116,"24","1",2012-08-07 21:03:00,2012-08-07,17:03:00,17,201224070274,"2000 BLOCK E ONTARIO ST",400,"Aggravated Assault Firearm",-75.10662221,39.9966916,39.9966916,-75.10662221,"2012","Y"
"487",99905,"12","1",2012-10-04 00:22:00,2012-10-03,20:22:00,20,201212074210,"2500 BLOCK ASHFORD ST",400,"Aggravated Assault Firearm",-75.24503833,39.91187184,39.91187183,-75.24503833,"2012","Y"
"488",100039,"25","3",2012-07-20 03:11:00,2012-07-19,23:11:00,23,201225059308,"3400 BLOCK HOPE ST",400,"Aggravated Assault Firearm",-75.12882522,40.00319968,40.00319968,-75.12882522,"2012","Y"
"489",100041,"12","2",2012-07-04 07:15:00,2012-07-04,03:15:00,3,201212049303,"6900 BLOCK SAYBROOK AV",400,"Aggravated Assault Firearm",-75.24084172,39.92008629,39.92008629,-75.24084172,"2012","Y"
"490",100043,"17","2",2012-12-19 21:34:00,2012-12-19,16:34:00,16,201217059417,"1500 BLOCK S DOVER ST",400,"Aggravated Assault Firearm",-75.19200962,39.93478792,39.93478792,-75.19200962,"2012","Y"
"491",99278,"26","1",2012-07-22 12:30:00,2012-07-22,08:30:00,8,201226038944,"PALETHORP ST  /  W CUMBERLAND ST",300,"Robbery Firearm",-75.13499018,39.98825654,39.98825654,-75.13499018,"2012","Y"
"492",99280,"35","3",2012-06-15 03:33:00,2012-06-14,23:33:00,23,201235046835,"2100 BLOCK CHELTEN AVE",300,"Robbery Firearm",-75.15696529,40.05192407,40.05192407,-75.15696529,"2012","Y"
"493",99291,"14","1",2012-07-24 04:48:00,2012-07-24,00:48:00,0,201214056322,"1800 BLOCK MOHICAN ST",300,"Robbery Firearm",-75.15941838,40.06374719,40.06374719,-75.15941838,"2012","Y"
"494",99134,"17","1",2012-12-30 07:28:00,2012-12-30,02:28:00,2,201217060802,"800 BLOCK S 15TH ST",400,"Aggravated Assault Firearm",-75.16780874,39.94101934,39.94101934,-75.16780874,"2012","Y"
"495",99140,"25","2",2012-09-11 19:58:00,2012-09-11,15:58:00,15,201225075140,"400 BLOCK W COURTLAND ST",300,"Robbery Firearm",-75.13201147,40.02088613,40.02088613,-75.13201147,"2012","Y"
"496",99948,"35","2",2012-10-19 15:12:00,2012-10-19,11:12:00,11,201235081826,"100 BLOCK W FISHER AVE",400,"Aggravated Assault Firearm",-75.12364349,40.03087533,40.03087533,-75.12364349,"2012","Y"
"497",100058,"03","1",2012-11-06 03:19:00,2012-11-05,22:19:00,22,201203071701,"800 BLOCK S 02ND ST",300,"Robbery Firearm",-75.14675379,39.93627912,39.93627912,-75.14675379,"2012","Y"
"498",99306,"02","2",2012-09-23 05:46:00,2012-09-23,01:46:00,1,201202064821,"700 BLOCK ADAMS AVE",400,"Aggravated Assault Firearm",-75.10691391,40.03314497,40.03314497,-75.10691391,"2012","Y"
"499",99325,"22","2",2012-06-15 04:58:00,2012-06-15,00:58:00,0,201222049325,"1800 BLOCK N BUCKNELL ST",300,"Robbery Firearm",-75.17321667,39.98226001,39.98226001,-75.17321667,"2012","Y"
"500",99163,"35","1",2012-08-05 09:40:00,2012-08-05,05:40:00,5,201235061318,"6200 BLOCK N 05TH ST",400,"Aggravated Assault Firearm",-75.12849829,40.0456356,40.0456356,-75.12849829,"2012","Y"
"501",99164,"25","3",2012-07-07 04:25:00,2012-07-07,00:25:00,0,201225055618,"3400 BLOCK G ST",400,"Aggravated Assault Firearm",-75.11457096,40.00080902,40.00080902,-75.11457096,"2012","Y"
"502",99184,"39","3",2012-07-11 07:58:00,2012-07-11,03:58:00,3,201239047472,"2100 BLOCK W WESTMORELAND ST",400,"Aggravated Assault Firearm",-75.16394433,40.00466489,40.00466489,-75.16394433,"2012","Y"
"503",99185,"39","3",2012-07-11 09:04:00,2012-07-11,05:04:00,5,201239047473,"2100 BLOCK W WESTMORELAND ST",400,"Aggravated Assault Firearm",-75.16394433,40.00466489,40.00466489,-75.16394433,"2012","Y"
"504",99983,"15","2",2012-12-22 15:22:00,2012-12-22,10:22:00,10,201215123012,"6200 BLOCK BUSTLETON AVE",300,"Robbery Firearm",-75.07142784,40.03421684,40.03421684,-75.07142784,"2012","Y"
"505",100077,"39","2",2012-06-21 23:01:00,2012-06-21,19:01:00,19,201239042062,"1500 BLOCK W CAYUGA ST",400,"Aggravated Assault Firearm",-75.15052885,40.020194,40.020194,-75.15052885,"2012","Y"
"506",97538,"35","3",2012-10-03 23:30:00,2012-10-03,19:30:00,19,201235077523,"1800 BLOCK W ALBANUS ST",400,"Aggravated Assault Firearm",-75.15338925,40.02946716,40.02946716,-75.15338925,"2012","Y"
"507",97548,"15","1",2012-10-30 02:50:00,2012-10-29,22:50:00,22,201215105523,"1500 BLOCK ARROTT ST",300,"Robbery Firearm",-75.08554598,40.0175128,40.0175128,-75.08554598,"2012","Y"
"508",97554,"22","3",2012-08-02 03:17:00,2012-08-01,23:17:00,23,201222064307,"1700 BLOCK CECIL B MOORE AVE",400,"Aggravated Assault Firearm",-75.16348404,39.97941794,39.97941794,-75.16348404,"2012","Y"
"509",98378,"25","3",2012-07-29 09:40:00,2012-07-29,05:40:00,5,201225062085,"500 BLOCK E CORNWALL ST",400,"Aggravated Assault Firearm",-75.12032584,39.99963769,39.99963769,-75.12032584,"2012","Y"
"510",97802,"24","2",2012-12-31 18:08:00,2012-12-31,13:08:00,13,201224114196,"2200 BLOCK E CAMBRIA ST",300,"Robbery Firearm",-75.11561968,39.98737818,39.98737818,-75.11561968,"2012","Y"
"511",97955,"15","1",2012-11-30 18:00:00,2012-11-30,13:00:00,13,201215115634,"4000 BLOCK FRANKFORD AVE",300,"Robbery Firearm",-75.09181792,40.00601676,40.00601676,-75.09181792,"2012","Y"
"512",98593,"25","1",2012-11-30 23:38:00,2012-11-30,18:38:00,18,201225099474,"4200 BLOCK N BROAD ST",300,"Robbery Firearm",-75.14934928,40.01796692,40.01796692,-75.14934928,"2012","Y"
"513",98833,"39","3",2012-07-11 09:05:00,2012-07-11,05:05:00,5,201239047474,"2100 BLOCK W WESTMORELAND ST",400,"Aggravated Assault Firearm",-75.16394433,40.00466489,40.00466489,-75.16394433,"2012","Y"
"514",98838,"35","3",2012-08-05 15:07:00,2012-08-05,11:07:00,11,201235061345,"1600 BLOCK LINDLEY AVE",400,"Aggravated Assault Firearm",-75.15058248,40.03115918,40.03115918,-75.15058248,"2012","Y"
"515",98858,"12","2",2012-06-28 01:46:00,2012-06-27,21:46:00,21,201212047400,"6000 BLOCK REINHARD ST",400,"Aggravated Assault Firearm",-75.22979292,39.93217156,39.93217156,-75.22979292,"2012","Y"
"516",98615,"19","1",2012-09-28 17:20:00,2012-09-28,13:20:00,13,201219081160,"5900 BLOCK UPLAND WAY",300,"Robbery Firearm",-75.24126296,39.98532457,39.98532457,-75.24126296,"2012","Y"
"517",98876,"06","1",2012-12-03 04:12:00,2012-12-02,23:12:00,23,201206059506,"400 BLOCK POPLAR ST",300,"Robbery Firearm",-75.14400431,39.9656791,39.9656791,-75.14400431,"2012","Y"
"518",97852,"15","1",2012-11-28 18:15:00,2012-11-28,13:15:00,13,201215114958,"1200 BLOCK ARROTT ST",300,"Robbery Firearm",-75.08972138,40.01988475,40.01988475,-75.08972138,"2012","Y"
"519",97856,"12","4",2012-06-04 05:03:00,2012-06-04,01:03:00,1,201212040304,"1300 BLOCK S 58TH ST",300,"Robbery Firearm",-75.23503633,39.94148315,39.94148315,-75.23503633,"2012","Y"
"520",97862,"22","2",2012-07-08 06:41:00,2012-07-08,02:41:00,2,201222056614,"2500 BLOCK W YORK ST",400,"Aggravated Assault Firearm",-75.17495333,39.99188344,39.99188343,-75.17495333,"2012","Y"
"521",97866,"18","1",2012-08-22 13:32:00,2012-08-22,09:32:00,9,201218049162,"6100 BLOCK LARCHWOOD AVE",400,"Aggravated Assault Firearm",-75.24638636,39.95447199,39.95447199,-75.24638636,"2012","Y"
"522",97868,"24","3",2012-08-12 06:30:00,2012-08-12,02:30:00,2,201224071877,"3100 BLOCK ALMOND ST",400,"Aggravated Assault Firearm",-75.10537921,39.98469538,39.98469538,-75.10537921,"2012","Y"
"523",98649,"18","3",2012-11-08 00:17:00,2012-11-07,19:17:00,19,201218065817,"400 BLOCK S 44TH ST",300,"Robbery Firearm",-75.2107713,39.95162333,39.95162333,-75.2107713,"2012","Y"
"524",98654,"19","2",2012-06-28 04:40:00,2012-06-28,00:40:00,0,201219051848,"100 BLOCK N 52ND ST",400,"Aggravated Assault Firearm",-75.2242218,39.96309574,39.96309574,-75.2242218,"2012","Y"
"525",98903,"02","1",2012-11-13 01:48:00,2012-11-12,20:48:00,20,201202076379,"6300 BLOCK ELMHURST ST",400,"Aggravated Assault Firearm",-75.08573911,40.04217818,40.04217818,-75.08573911,"2012","Y"
"526",98909,"39","2",2012-10-08 21:30:00,2012-10-08,17:30:00,17,201239068379,"1700 BLOCK W ERIE AVE",300,"Robbery Firearm",-75.15603092,40.00987714,40.00987714,-75.15603092,"2012","Y"
"527",97887,"02","1",2012-09-27 03:00:00,2012-09-26,23:00:00,23,201202065659,"1500 BLOCK MAGEE AVE",300,"Robbery Firearm",-75.07422145,40.04149429,40.04149429,-75.07422145,"2012","Y"
"528",98041,"02","1",2012-07-25 03:55:00,2012-07-24,23:55:00,23,201202050694,"1200 BLOCK E CHELTENHAM AV",300,"Robbery Firearm",-75.08800804,40.03390499,40.03390499,-75.08800804,"2012","Y"
