"","objectid","dc_dist","psa","dispatch_date_time","dispatch_date","dispatch_time","hour","dc_key","location_block","ucr_general","text_general_code","point_x","point_y","lat","lng","year","GunViolence"
"1",155443,"22","2",2020-07-25 03:21:00,2020-07-24,23:21:00,23,202022051077,"2400 BLOCK W GLENWOOD AVE",400,"Aggravated Assault Firearm",-75.26380374,40.05509472,40.05509472,-75.26380374,"2020","Y"
"2",155456,"24","2",2020-05-02 17:16:00,2020-05-02,13:16:00,13,202024031430,"F ST  /  E CLEARFIELD ST",400,"Aggravated Assault Firearm",-75.26380374,40.05509472,40.05509472,-75.26380374,"2020","Y"
"3",155471,"06","2",2020-08-20 06:38:00,2020-08-20,02:38:00,2,202006032903,"100 BLOCK S CHRISTOPHER",400,"Aggravated Assault Firearm",-75.26380374,40.05509472,40.05509472,-75.26380374,"2020","Y"
"4",155474,"06","1",2020-06-10 05:06:00,2020-06-10,01:06:00,1,202006024251,"800 BLOCK SPRING GARDEN SARDEN ST",400,"Aggravated Assault Firearm",-75.26380374,40.05509472,40.05509472,-75.26380374,"2020","Y"
"5",155475,"22","3",2020-06-13 04:50:00,2020-06-13,00:50:00,0,202022041767,"N 19TH ST  /  CECIL B MOORE AV",400,"Aggravated Assault Firearm",-75.26380374,40.05509472,40.05509472,-75.26380374,"2020","Y"
"6",155489,"35","3",2020-10-03 19:27:00,2020-10-03,15:27:00,15,202035081046,"N 17TH ST & W RUSCOMB ST",400,"Aggravated Assault Firearm",-75.26380374,40.05509472,40.05509472,-75.26380374,"2020","Y"
"7",155493,"35","3",2020-06-16 03:48:00,2020-06-15,23:48:00,23,202035048175,"66TH AV & N GRATZ ST",400,"Aggravated Assault Firearm",-75.26380374,40.05509472,40.05509472,-75.26380374,"2020","Y"
"8",155499,"24","2",2020-05-14 02:29:00,2020-05-13,22:29:00,22,202024034785,"300 BLOCK E ALLEGHENY AV AV",400,"Aggravated Assault Firearm",-75.26380374,40.05509472,40.05509472,-75.26380374,"2020","Y"
"9",155503,"24","2",2020-08-10 00:13:00,2020-08-09,20:13:00,20,202024056853,"1800 BLOCK E LIPPINCOTT SINCOTT ST",400,"Aggravated Assault Firearm",-75.26380374,40.05509472,40.05509472,-75.26380374,"2020","Y"
"10",155518,"35","2",2020-10-27 22:44:00,2020-10-27,18:44:00,18,202035087873,"4800 BLOCK W WARNOCK ST",400,"Aggravated Assault Firearm",-75.26380374,40.05509472,40.05509472,-75.26380374,"2020","Y"
"11",155526,"14","1",2020-11-16 22:54:00,2020-11-16,17:54:00,17,202014069988,"W 6501 WISTER ST",300,"Robbery Firearm",-75.26380374,40.05509472,40.05509472,-75.26380374,"2020","Y"
"12",155541,"22","2",2020-07-29 05:18:00,2020-07-29,01:18:00,1,202022051934,"N 26TH ST /  DAULPIN",300,"Robbery Firearm",-75.26380374,40.05509472,40.05509472,-75.26380374,"2020","Y"
"13",159139,"14","4",2020-03-27 03:57:00,2020-03-26,23:57:00,23,202014022349,"200 BLOCK WYNDMOOR ST",300,"Robbery Firearm",-75.26380374,40.05509472,40.05509472,-75.26380374,"2020","Y"
"14",159167,"22","2",2020-10-01 13:56:00,2020-10-01,09:56:00,9,202022066672,"2500 BLOCK N 26TH ST",300,"Robbery Firearm",-75.26380374,40.05509472,40.05509472,-75.26380374,"2020","Y"
"15",159169,"39","3",2020-07-09 12:00:00,2020-07-09,08:00:00,8,202039043505,"1400 BLOCK W GLENWOOD AV WOOD AVE",300,"Robbery Firearm",-75.26380374,40.05509472,40.05509472,-75.26380374,"2020","Y"
"16",159170,"24","1",2020-07-28 22:42:00,2020-07-28,18:42:00,18,202024054176,"2000 BLOCK E ALLEGHENY AMERALD ST",400,"Aggravated Assault Firearm",-75.26380374,40.05509472,40.05509472,-75.26380374,"2020","Y"
"17",159088,"25","3",2020-06-03 01:58:00,2020-06-02,21:58:00,21,202025036838,"300 BLOCK W TIOGA ST",400,"Aggravated Assault Firearm",-75.26380374,40.05509472,40.05509472,-75.26380374,"2020","Y"
"18",159172,"24","1",2020-09-09 01:03:00,2020-09-08,21:03:00,21,202024064758,"3100 BLOCK POTTER ST",300,"Robbery Firearm",-75.26380374,40.05509472,40.05509472,-75.26380374,"2020","Y"
"19",159176,"01","2",2020-01-27 11:01:00,2020-01-27,06:01:00,6,202001003594,"1500 BLOCK W MOYAMENSINGMENSING AV",300,"Robbery Firearm",-75.26380374,40.05509472,40.05509472,-75.26380374,"2020","Y"
"20",159189,"14","2",2020-03-24 17:23:00,2020-03-24,13:23:00,13,202014021690,"GERM / MONTANA ST",400,"Aggravated Assault Firearm",-75.26380374,40.05509472,40.05509472,-75.26380374,"2020","Y"
"21",159096,"26","1",2020-05-14 04:11:00,2020-05-14,00:11:00,0,202026018327,"2400 BLOCK MARSHALL ST",300,"Robbery Firearm",-75.26380374,40.05509472,40.05509472,-75.26380374,"2020","Y"
"22",162749,"24","3",2020-06-24 02:37:00,2020-06-23,22:37:00,22,202024046019,"E ALLEGHENY AV  /  AMBER ST",400,"Aggravated Assault Firearm",-75.26380374,40.05509472,40.05509472,-75.26380374,"2020","Y"
"23",162750,"25","4",2020-02-25 22:15:00,2020-02-25,17:15:00,17,202025013535,"500 BLOCK W ALLEGHENY AVEHENY AVE",400,"Aggravated Assault Firearm",-75.26380374,40.05509472,40.05509472,-75.26380374,"2020","Y"
"24",162785,"35","1",2020-12-21 01:38:00,2020-12-20,20:38:00,20,202035101920,"N FAIRHILL ST & W GODFREY AV",400,"Aggravated Assault Firearm",-75.26380374,40.05509472,40.05509472,-75.26380374,"2020","Y"
"25",162798,"24","1",2020-11-22 03:45:00,2020-11-21,22:45:00,22,202024083472,"1900 BLOCK E CLARENCE ST CE ST",300,"Robbery Firearm",-75.26380374,40.05509472,40.05509472,-75.26380374,"2020","Y"
"26",162803,"02","1",2020-02-15 16:07:00,2020-02-15,11:07:00,11,202002008625,"5900 BLOCK ROOSEVELT BLVD BRIDGE ST",300,"Robbery Firearm",-75.26380374,40.05509472,40.05509472,-75.26380374,"2020","Y"
"27",165137,"25","4",2020-11-10 03:13:00,2020-11-09,22:13:00,22,202025073026,"800 BLOCK W CLEARFIELD STEARFIELD ST",400,"Aggravated Assault Firearm",-75.26380374,40.05509472,40.05509472,-75.26380374,"2020","Y"
"28",165194,"39","2",2020-02-22 07:27:00,2020-02-22,02:27:00,2,202039013443,"N 19TH ST  /  W ALLEGHENY AV",300,"Robbery Firearm",-75.26380374,40.05509472,40.05509472,-75.26380374,"2020","Y"
"29",164493,"15","1",2020-11-23 06:28:00,2020-11-23,01:28:00,1,202015092729,"4000 BLOCK FRANKFORD AVE RCH ST",300,"Robbery Firearm",-75.26380374,40.05509472,40.05509472,-75.26380374,"2020","Y"
"30",164678,"12","4",2020-11-27 20:53:00,2020-11-27,15:53:00,15,202012084038,"5600 BLOCK KINGSESSING AVSING AVE",300,"Robbery Firearm",-75.26380374,40.05509472,40.05509472,-75.26380374,"2020","Y"
"31",164687,"14","2",2020-11-07 00:48:00,2020-11-06,19:48:00,19,202014068208,"BELFIELD / WALNUT LN",400,"Aggravated Assault Firearm",-75.26380374,40.05509472,40.05509472,-75.26380374,"2020","Y"
"32",164695,"24","1",2020-05-17 03:16:00,2020-05-16,23:16:00,23,202024035882,"800 BLOCK E HUNTING PARK AVE",400,"Aggravated Assault Firearm",-75.26380374,40.05509472,40.05509472,-75.26380374,"2020","Y"
"33",164719,"24","2",2020-04-17 16:54:00,2020-04-17,12:54:00,12,202024027946,"E CLEARFIELD ST  /  F ST",300,"Robbery Firearm",-75.26380374,40.05509472,40.05509472,-75.26380374,"2020","Y"
"34",164758,"24","1",2020-05-31 00:10:00,2020-05-30,20:10:00,20,202024040042,"1900 BLOCK E ALLEGHENY AVE",300,"Robbery Firearm",-75.26380374,40.05509472,40.05509472,-75.26380374,"2020","Y"
"35",164760,"24","2",2020-08-06 16:52:00,2020-08-06,12:52:00,12,202024056044,"G ST  /  KENSINGTON AV",300,"Robbery Firearm",-75.26380374,40.05509472,40.05509472,-75.26380374,"2020","Y"
"36",164763,"19","1",2020-12-21 00:06:00,2020-12-20,19:06:00,19,202019077072,"6800 BLOCK MALVERN AVE",300,"Robbery Firearm",-75.26380374,40.05509472,40.05509472,-75.26380374,"2020","Y"
"37",164770,"12","3",2020-11-10 04:49:00,2020-11-09,23:49:00,23,202012080606,"54TH DR  /  BARTRAM DR",400,"Aggravated Assault Firearm",-75.26380374,40.05509472,40.05509472,-75.26380374,"2020","Y"
"38",164771,"26","1",2020-08-05 05:42:00,2020-08-05,01:42:00,1,202026029060,"700 BLOCK W HUNTINGDON STNGDON ST",400,"Aggravated Assault Firearm",-75.26380374,40.05509472,40.05509472,-75.26380374,"2020","Y"
"39",164780,"02","2",2020-03-16 13:14:00,2020-03-16,09:14:00,9,202002014339,"600 BLOCK CHELTENHAM AVE",300,"Robbery Firearm",-75.26380374,40.05509472,40.05509472,-75.26380374,"2020","Y"
"40",164789,"19","3",2020-04-02 18:35:00,2020-04-02,14:35:00,14,202019024944,"5200 BLOCK LANCASTER AVE TER AVE",300,"Robbery Firearm",-75.26380374,40.05509472,40.05509472,-75.26380374,"2020","Y"
"41",164792,"08","1",2020-04-21 07:39:00,2020-04-21,03:39:00,3,202008011769,"8700 BLOCK FRANKFORD AVE",400,"Aggravated Assault Firearm",-75.26380374,40.05509472,40.05509472,-75.26380374,"2020","Y"
"42",165054,"19","2",2020-11-17 13:51:00,2020-11-17,08:51:00,8,202019070901,"5800 BLOCK HAVERFORD AVE 8TH ST",300,"Robbery Firearm",-75.26380374,40.05509472,40.05509472,-75.26380374,"2020","Y"
"43",165111,"24","1",2020-10-21 23:06:00,2020-10-21,19:06:00,19,202024075958,"3100 BLOCK KENSINGTON AVELLEGHENY AVE",400,"Aggravated Assault Firearm",-75.26380374,40.05509472,40.05509472,-75.26380374,"2020","Y"
"44",165028,"39","1",2020-08-23 19:04:00,2020-08-23,15:04:00,15,202039051396,"3100 BLOCK W ALLEGHENY AVGHENY AVE",300,"Robbery Firearm",-75.26380374,40.05509472,40.05509472,-75.26380374,"2020","Y"
"45",165029,"24","3",2020-02-10 01:55:00,2020-02-09,20:55:00,20,202024010931,"2500 BLOCK E CLEARFIELD SFIELD ST",400,"Aggravated Assault Firearm",-75.26380374,40.05509472,40.05509472,-75.26380374,"2020","Y"
"46",165034,"22","2",2020-08-09 12:50:00,2020-08-09,08:50:00,8,202022054404,"N 31ST ST  /  W YORK ST",300,"Robbery Firearm",-75.26380374,40.05509472,40.05509472,-75.26380374,"2020","Y"
"47",165036,"19","3",2020-09-18 09:53:00,2020-09-18,05:53:00,5,202019058577,"5200 BLOCK LANCASTER AVE TER AVE",300,"Robbery Firearm",-75.26380374,40.05509472,40.05509472,-75.26380374,"2020","Y"
"48",165041,"39","1",2020-02-18 19:58:00,2020-02-18,14:58:00,14,202039012478,"WAYNE & LOGAN",400,"Aggravated Assault Firearm",-75.26380374,40.05509472,40.05509472,-75.26380374,"2020","Y"
"49",165043,"19","2",2020-03-02 08:01:00,2020-03-02,03:01:00,3,202019017392,"N 5752 FILBERT ST",400,"Aggravated Assault Firearm",-75.26380374,40.05509472,40.05509472,-75.26380374,"2020","Y"
"50",164883,"01","1",2020-02-01 00:43:00,2020-01-31,19:43:00,19,202001004252,"S 1800 S 25TH ST",400,"Aggravated Assault Firearm",-75.26380374,40.05509472,40.05509472,-75.26380374,"2020","Y"
"51",165097,"25","1",2020-09-29 04:33:00,2020-09-29,00:33:00,0,202025063436,"N 6TH ST  /  W ROOSEVELT BLVD",400,"Aggravated Assault Firearm",-75.26380374,40.05509472,40.05509472,-75.26380374,"2020","Y"
"52",164905,"15","3",2020-01-26 02:38:00,2020-01-25,21:38:00,21,202015008152,"6300 BLOCK E ROOSEVELT BLDG HARBISON AVE",400,"Aggravated Assault Firearm",-75.26380374,40.05509472,40.05509472,-75.26380374,"2020","Y"
"53",164931,"22","2",2020-12-28 22:35:00,2020-12-28,17:35:00,17,202022084464,"2100 BLOCK N 23RD STREET N ST",400,"Aggravated Assault Firearm",-75.26380374,40.05509472,40.05509472,-75.26380374,"2020","Y"
"54",163791,"25","4",2020-12-21 08:03:00,2020-12-21,03:03:00,3,202025081217,"1000 BLOCK W ALLEGHENY AVE",400,"Aggravated Assault Firearm",-75.26380374,40.05509472,40.05509472,-75.26380374,"2020","Y"
"55",163793,"12","4",2020-01-29 12:08:00,2020-01-29,07:08:00,7,202012008294,"5800 BLOCK SPRINGFIELD AVFIELD AVE",300,"Robbery Firearm",-75.26380374,40.05509472,40.05509472,-75.26380374,"2020","Y"
"56",164566,"12","3",2020-11-24 21:11:00,2020-11-24,16:11:00,16,202012083487,"6000 BLOCK LINDBERGH BLVDRGH BLVD",400,"Aggravated Assault Firearm",-75.26380374,40.05509472,40.05509472,-75.26380374,"2020","Y"
"57",164569,"25","3",2020-07-28 04:51:00,2020-07-28,00:51:00,0,202025049032,"N 500 W GLENWOOD",300,"Robbery Firearm",-75.26380374,40.05509472,40.05509472,-75.26380374,"2020","Y"
"58",164571,"15","2",2020-12-15 03:40:00,2020-12-14,22:40:00,22,202015097999,"6000 BLOCK COMLY ST",300,"Robbery Firearm",-75.26380374,40.05509472,40.05509472,-75.26380374,"2020","Y"
"59",164580,"24","2",2020-02-25 13:15:00,2020-02-25,08:15:00,8,202024015221,"3000 BLOCK CUSTER ST",400,"Aggravated Assault Firearm",-75.26380374,40.05509472,40.05509472,-75.26380374,"2020","Y"
"60",163802,"25","1",2020-08-29 05:36:00,2020-08-29,01:36:00,1,202025056172,"1200 BLOCK W HUNTING PARKTING PARK AVE",400,"Aggravated Assault Firearm",-75.26380374,40.05509472,40.05509472,-75.26380374,"2020","Y"
"61",164405,"25","2",2020-03-18 06:24:00,2020-03-18,02:24:00,2,202025019045,"E HUNTING PARK AVE",300,"Robbery Firearm",-75.26380374,40.05509472,40.05509472,-75.26380374,"2020","Y"
"62",164594,"25","4",2020-07-06 05:23:00,2020-07-06,01:23:00,1,202025044218,"N 700 W RUSSELL",400,"Aggravated Assault Firearm",-75.26380374,40.05509472,40.05509472,-75.26380374,"2020","Y"
"63",164611,"18","3",2020-11-27 00:55:00,2020-11-26,19:55:00,19,202018078700,"S 4300 PINE ST",300,"Robbery Firearm",-75.26380374,40.05509472,40.05509472,-75.26380374,"2020","Y"
"64",163827,"25","4",2020-04-17 07:32:00,2020-04-17,03:32:00,3,202025025116,"1300 BLOCK W ALLEGHENY AVGHENY AVE",400,"Aggravated Assault Firearm",-75.26380374,40.05509472,40.05509472,-75.26380374,"2020","Y"
"65",164440,"24","1",2020-05-20 18:53:00,2020-05-20,14:53:00,14,202024036994,"2000 BLOCK E BUCKIUS ST KIUS ST",400,"Aggravated Assault Firearm",-75.26380374,40.05509472,40.05509472,-75.26380374,"2020","Y"
"66",164446,"24","1",2020-11-15 06:54:00,2020-11-15,01:54:00,1,202024082017,"800 BLOCK E ALLEGHENY AVEALLEGHENY AVE",300,"Robbery Firearm",-75.26380374,40.05509472,40.05509472,-75.26380374,"2020","Y"
"67",164619,"15","2",2020-07-18 01:28:00,2020-07-17,21:28:00,21,202015057856,"BRIDGE ST  /  TORRESDALE AV",400,"Aggravated Assault Firearm",-75.26380374,40.05509472,40.05509472,-75.26380374,"2020","Y"
"68",164626,"14","3",2020-11-20 06:43:00,2020-11-20,01:43:00,1,202014070671,"LINCOLN DR  /  WAYNE AV",400,"Aggravated Assault Firearm",-75.26380374,40.05509472,40.05509472,-75.26380374,"2020","Y"
"69",164628,"22","1",2020-07-19 09:29:00,2020-07-19,05:29:00,5,202022049907,"21ST SEDGLEY AVE",300,"Robbery Firearm",-75.26380374,40.05509472,40.05509472,-75.26380374,"2020","Y"
"70",164456,"22","1",2020-11-20 23:48:00,2020-11-20,18:48:00,18,202022077567,"N 15TH ST  /  W HUNTINGDON ST",300,"Robbery Firearm",-75.26380374,40.05509472,40.05509472,-75.26380374,"2020","Y"
"71",164470,"39","2",2020-12-30 11:40:00,2020-12-30,06:40:00,6,202039076234,"3100 BLOCK W HUNTING PARKING PARK AVE",300,"Robbery Firearm",-75.26380374,40.05509472,40.05509472,-75.26380374,"2020","Y"
"72",164471,"15","2",2020-02-09 10:23:00,2020-02-09,05:23:00,5,202015012764,"COMLY ST  /  N PENN ST",300,"Robbery Firearm",-75.26380374,40.05509472,40.05509472,-75.26380374,"2020","Y"
"73",235195,"02","2",2020-05-17 01:56:00,2020-05-16,21:56:00,21,202002023036,"5500 BLOCK HILL CREEK CT",400,"Aggravated Assault Firearm",-75.10859255,40.03575935,40.03575935,-75.10859255,"2020","Y"
"74",235787,"35","2",2020-08-27 03:44:00,2020-08-26,23:44:00,23,202035070035,"5000 BLOCK N 12TH ST",300,"Robbery Firearm",-75.14312841,40.02865227,40.02865227,-75.14312841,"2020","Y"
"75",235794,"18","3",2020-06-27 04:47:00,2020-06-27,00:47:00,0,202018047847,"4700 BLOCK PINE ST",300,"Robbery Firearm",-75.21635189,39.95231182,39.95231182,-75.21635189,"2020","Y"
"76",235074,"14","2",2020-03-14 18:29:00,2020-03-14,14:29:00,14,202014019283,"5800 BLOCK MC MAHON AVE",400,"Aggravated Assault Firearm",-75.16816376,40.0455234,40.0455234,-75.16816376,"2020","Y"
"77",248237,"22","3",2020-03-31 06:50:00,2020-03-31,02:50:00,2,202022023792,"1600 BLOCK N BOUVIER ST",400,"Aggravated Assault Firearm",-75.16348404,39.97941794,39.97941794,-75.16348404,"2020","Y"
"78",248327,"19","3",2020-08-06 03:07:00,2020-08-05,23:07:00,23,202019049507,"1700 BLOCK N LINDENWOOD ST",400,"Aggravated Assault Firearm",-75.22720941,39.98012682,39.98012682,-75.22720941,"2020","Y"
"79",246632,"12","3",2020-05-15,2020-05-14,20:00:00,20,202012038923,"5500 BLOCK UPLAND ST",400,"Aggravated Assault Firearm",-75.22344955,39.93590946,39.93590946,-75.22344955,"2020","Y"
"80",246649,"18","2",2020-08-20 01:49:00,2020-08-19,21:49:00,21,202018057732,"800 BLOCK S 55TH ST",400,"Aggravated Assault Firearm",-75.23341625,39.9481847,39.9481847,-75.23341625,"2020","Y"
"81",246692,"18","2",2020-08-09 05:59:00,2020-08-09,01:59:00,1,202018055648,"5500 BLOCK PEMBERTON ST",400,"Aggravated Assault Firearm",-75.23291289,39.95064854,39.95064854,-75.23291289,"2020","Y"
"82",248436,"35","2",2020-08-14 07:34:00,2020-08-14,03:34:00,3,202035066010,"4500 BLOCK N 17TH ST",400,"Aggravated Assault Firearm",-75.15336042,40.02209733,40.02209733,-75.15336042,"2020","Y"
"83",248142,"15","2",2020-06-13 14:08:00,2020-06-13,10:08:00,10,202015047817,"5700 BLOCK TULIP ST",400,"Aggravated Assault Firearm",-75.06157766,40.01429464,40.01429464,-75.06157766,"2020","Y"
"84",247976,"35","3",2020-07-22 06:38:00,2020-07-22,02:38:00,2,202035058808,"1900 BLOCK W LAVEER ST",400,"Aggravated Assault Firearm",-75.15063147,40.04942544,40.04942544,-75.15063147,"2020","Y"
"85",243339,"03","3",2020-03-29 00:40:00,2020-03-28,20:40:00,20,202003018836,"S 11TH ST  /  SNYDER AV",300,"Robbery Firearm",-75.16444348,39.92371112,39.92371112,-75.16444348,"2020","Y"
"86",243511,"15","1",2020-08-31 04:13:00,2020-08-31,00:13:00,0,202015069318,"5200 BLOCK OXFORD AVE",400,"Aggravated Assault Firearm",-75.08493336,40.02638601,40.02638601,-75.08493336,"2020","Y"
"87",265474,"39","1",2020-12-04 21:35:00,2020-12-04,16:35:00,16,202039071858,"4900 BLOCK KEYSER ST",400,"Aggravated Assault Firearm",-75.16550262,40.02519003,40.02519003,-75.16550262,"2020","Y"
"88",260874,"25","4",2020-11-03 22:32:00,2020-11-03,17:32:00,17,202025071787,"3100 BLOCK N CAMAC ST",400,"Aggravated Assault Firearm",-75.15019429,39.99992077,39.99992077,-75.15019429,"2020","Y"
"89",260879,"14","3",2020-11-18 02:51:00,2020-11-17,21:51:00,21,202014070220,"6100 BLOCK WAYNE AVE",400,"Aggravated Assault Firearm",-75.18436312,40.03491732,40.03491732,-75.18436312,"2020","Y"
"90",265503,"12","3",2020-12-27 22:36:00,2020-12-27,17:36:00,17,202012090035,"6100 BLOCK W PASSYUNK AVE",300,"Robbery Firearm",-75.20870349,39.91830781,39.91830781,-75.20870349,"2020","Y"
"91",264830,"24","2",2020-12-14 23:58:00,2020-12-14,18:58:00,18,202024088256,"2000 BLOCK E ALLEGHENY AVE",300,"Robbery Firearm",-75.11216062,39.9938046,39.9938046,-75.11216062,"2020","Y"
"92",260951,"25","1",2020-09-14 13:26:00,2020-09-14,09:26:00,9,202025059912,"1100 BLOCK W LYCOMING ST",300,"Robbery Firearm",-75.14320002,40.01351983,40.01351983,-75.14320002,"2020","Y"
"93",264438,"24","2",2020-12-27 21:37:00,2020-12-27,16:37:00,16,202024090869,"3100 BLOCK JASPER ST",400,"Aggravated Assault Firearm",-75.11465919,39.99390385,39.99390385,-75.11465919,"2020","Y"
"94",265118,"24","2",2020-11-21 13:18:00,2020-11-21,08:18:00,8,202024083294,"2000 BLOCK E ALLEGHENY AVE",300,"Robbery Firearm",-75.11216062,39.9938046,39.9938046,-75.11216062,"2020","Y"
"95",265692,"35","1",2020-09-04 15:43:00,2020-09-04,11:43:00,11,202035072486,"6000 BLOCK CRESCENTVILLE RD",400,"Aggravated Assault Firearm",-75.11354717,40.04272043,40.04272043,-75.11354717,"2020","Y"
"96",260968,"16","2",2020-11-25 23:46:00,2020-11-25,18:46:00,18,202016043707,"4200 BLOCK W GIRARD AVE",300,"Robbery Firearm",-75.20890453,39.97362212,39.97362212,-75.20890453,"2020","Y"
"97",263646,"24","2",2020-11-13 10:29:00,2020-11-13,05:29:00,5,202024081576,"3000 BLOCK MARTHA ST",300,"Robbery Firearm",-75.11370309,39.98911687,39.98911687,-75.11370309,"2020","Y"
"98",263648,"12","3",2020-09-08 17:01:00,2020-09-08,13:01:00,13,202012066307,"6500 BLOCK GESNER ST",400,"Aggravated Assault Firearm",-75.2335377,39.92490801,39.92490801,-75.23353771,"2020","Y"
"99",265127,"14","1",2020-12-07 18:36:00,2020-12-07,13:36:00,13,202014073627,"2200 BLOCK WOOSTER ST",400,"Aggravated Assault Firearm",-75.1538516,40.06651346,40.06651346,-75.1538516,"2020","Y"
"100",265163,"01","1",2020-10-08 19:12:00,2020-10-08,15:12:00,15,202001025471,"2700 BLOCK S WOLF ST",400,"Aggravated Assault Firearm",-75.19058338,39.92421818,39.92421818,-75.19058338,"2020","Y"
"101",261454,"35","2",2020-09-02 02:24:00,2020-09-01,22:24:00,22,202035071769,"N BROAD ST  /  W OLNEY AV",300,"Robbery Firearm",-75.14475191,40.03908202,40.03908202,-75.14475191,"2020","Y"
"102",263710,"24","1",2020-09-30 04:06:00,2020-09-30,00:06:00,0,202024070306,"1800 BLOCK TORRESDALE AVE",400,"Aggravated Assault Firearm",-75.09634977,40.00586099,40.00586099,-75.09634977,"2020","Y"
"103",264532,"17",NA,2020-09-11 21:17:00,2020-09-11,17:17:00,NA,202017025759,"1600 BLOCK S 27th St",400,"Aggravated Assault Firearm",-75.18995114,39.93201155,39.93201155,-75.18995114,"2020","Y"
"104",264941,"39","3",2020-10-31 08:26:00,2020-10-31,04:26:00,4,202039065547,"N 22ND ST  /  W ALLEGHENY AV",300,"Robbery Firearm",-75.16589839,40.00327851,40.00327851,-75.16589839,"2020","Y"
"105",264945,"25","4",2020-10-01 19:53:00,2020-10-01,15:53:00,15,202025064153,"1200 BLOCK W SOMERSET ST",300,"Robbery Firearm",-75.15046974,39.99504991,39.99504991,-75.15046974,"2020","Y"
"106",265646,"24","2",2020-09-28 02:56:00,2020-09-27,22:56:00,22,202024069744,"3100 BLOCK A ST",400,"Aggravated Assault Firearm",-75.12767788,39.99671471,39.99671471,-75.12767788,"2020","Y"
"107",260604,"19","2",2020-11-30 11:10:00,2020-11-30,06:10:00,6,202019073129,"5400 BLOCK ARCH ST",300,"Robbery Firearm",-75.22890184,39.96211664,39.96211664,-75.22890184,"2020","Y"
"108",261489,"25","1",2020-10-30 16:13:00,2020-10-30,12:13:00,12,202025070940,"700 BLOCK W LUZERNE ST",400,"Aggravated Assault Firearm",-75.13948776,40.01246272,40.01246272,-75.13948776,"2020","Y"
"109",261505,"02","1",2020-10-20 00:02:00,2020-10-19,20:02:00,20,202002048887,"1700 BLOCK MAGEE AVE",400,"Aggravated Assault Firearm",-75.07002835,40.0391484,40.0391484,-75.07002835,"2020","Y"
"110",264139,"39","3",2020-10-11 05:21:00,2020-10-11,01:21:00,1,202039061448,"2700 BLOCK N 21ST ST",400,"Aggravated Assault Firearm",-75.16596664,39.99542163,39.99542163,-75.16596664,"2020","Y"
"111",264567,"02","2",2020-11-06 10:56:00,2020-11-06,05:56:00,5,202002051651,"5700 BLOCK RISING SUN AVE",400,"Aggravated Assault Firearm",-75.10585085,40.04191208,40.04191208,-75.10585085,"2020","Y"
"112",265219,"25","1",2020-10-03 19:20:00,2020-10-03,15:20:00,15,202025064663,"3900 BLOCK N BROAD ST",400,"Aggravated Assault Firearm",-75.15024743,40.01377115,40.01377115,-75.15024743,"2020","Y"
"113",260625,"24","2",2020-11-28 13:43:00,2020-11-28,08:43:00,8,202024084749,"100 BLOCK E STERNER ST",400,"Aggravated Assault Firearm",-75.1288745,39.99115919,39.99115919,-75.1288745,"2020","Y"
"114",260629,"24","2",2020-11-25 03:31:00,2020-11-24,22:31:00,22,202024084080,"1800 BLOCK E ALLEGHENY AVE",400,"Aggravated Assault Firearm",-75.11335803,39.99652645,39.99652645,-75.11335803,"2020","Y"
"115",261511,"09","3",2020-12-07 00:02:00,2020-12-06,19:02:00,19,202009039652,"800 BLOCK PERKIOMEN ST",400,"Aggravated Assault Firearm",-75.16558372,39.96872244,39.96872244,-75.16558372,"2020","Y"
"116",261517,"35","3",2020-12-07 00:44:00,2020-12-06,19:44:00,19,202035098100,"6200 BLOCK N BEECHWOOD ST",400,"Aggravated Assault Firearm",-75.15711414,40.04964411,40.04964411,-75.15711414,"2020","Y"
"117",264999,"25","2",2020-10-25 18:06:00,2020-10-25,14:06:00,14,202025069830,"300 BLOCK W ANNSBURY ST",400,"Aggravated Assault Firearm",-75.13217596,40.02014406,40.02014406,-75.13217596,"2020","Y"
"118",261544,"22","2",2020-11-29 06:10:00,2020-11-29,01:10:00,1,202022079005,"2500 BLOCK W HAGART ST",400,"Aggravated Assault Firearm",-75.17318534,39.99242113,39.99242113,-75.17318534,"2020","Y"
"119",264192,"25","4",2020-09-12 10:44:00,2020-09-12,06:44:00,6,202025059398,"800 BLOCK W SEDGLEY AVE",300,"Robbery Firearm",-75.14412543,40.0021673,40.0021673,-75.14412543,"2020","Y"
"120",265026,"19","3",2020-09-13 10:14:00,2020-09-13,06:14:00,6,202019057496,"2100 BLOCK N 56TH ST",400,"Aggravated Assault Firearm",-75.23477615,39.98609856,39.98609856,-75.23477615,"2020","Y"
"121",265278,"12","3",2020-11-19 14:04:00,2020-11-19,09:04:00,9,202012082443,"6600 BLOCK BUIST AVE",300,"Robbery Firearm",-75.23017115,39.92015491,39.92015491,-75.23017115,"2020","Y"
"122",261592,"25","3",2020-10-05 21:50:00,2020-10-05,17:50:00,17,202025065140,"200 BLOCK W LEHIGH AVE",400,"Aggravated Assault Firearm",-75.13487091,39.99141704,39.99141704,-75.13487091,"2020","Y"
"123",264223,"25","2",2020-10-03 22:17:00,2020-10-03,18:17:00,18,202025064692,"500 BLOCK E LOUDON ST",400,"Aggravated Assault Firearm",-75.11610836,40.02211893,40.02211893,-75.11610836,"2020","Y"
"124",264225,"15","1",2020-11-15 23:41:00,2020-11-15,18:41:00,18,202015090847,"1800 BLOCK FILLMORE ST",400,"Aggravated Assault Firearm",-75.07668109,40.01561731,40.01561731,-75.07668109,"2020","Y"
"125",264629,"19","3",2020-09-10 19:45:00,2020-09-10,15:45:00,15,202019056997,"4100 BLOCK MONUMENT RD",400,"Aggravated Assault Firearm",-75.21361745,40.00209095,40.00209095,-75.21361745,"2020","Y"
"126",260758,"19","2",2020-12-31 04:52:00,2020-12-30,23:52:00,23,202019079033,"200 BLOCK N 56TH ST",400,"Aggravated Assault Firearm",-75.23221284,39.96408625,39.96408625,-75.23221284,"2020","Y"
"127",261227,"03","3",2020-12-04 01:26:00,2020-12-03,20:26:00,20,202003061714,"700 BLOCK WHARTON ST",300,"Robbery Firearm",-75.1560275,39.93264443,39.93264443,-75.1560275,"2020","Y"
"128",261255,"24","1",2020-11-05 11:53:00,2020-11-05,06:53:00,6,202024079752,"1800 BLOCK E HUNTING PARK AVE",400,"Aggravated Assault Firearm",-75.09410702,40.00710575,40.00710575,-75.09410702,"2020","Y"
"129",263922,"15","3",2020-12-30 01:49:00,2020-12-29,20:49:00,20,202015101383,"4100 BLOCK WELLINGTON ST",300,"Robbery Firearm",-75.04177879,40.03518604,40.03518603,-75.04177879,"2020","Y"
"130",264347,"12","4",2020-09-27 19:27:00,2020-09-27,15:27:00,15,202012070865,"1100 BLOCK S 52ND ST",400,"Aggravated Assault Firearm",-75.22276262,39.94381508,39.94381508,-75.22276262,"2020","Y"
"131",264744,"24","2",2020-10-25 20:37:00,2020-10-25,16:37:00,16,202024077069,"1800 BLOCK E CLEARFIELD ST",300,"Robbery Firearm",-75.11578148,39.99517671,39.99517671,-75.11578148,"2020","Y"
"132",263942,"12","2",2020-12-04 13:32:00,2020-12-04,08:32:00,8,202012085414,"1900 BLOCK S 66TH ST",300,"Robbery Firearm",-75.2394958,39.92803344,39.92803344,-75.2394958,"2020","Y"
"133",276183,"25","2",2020-12-17 02:51:00,2020-12-16,21:51:00,21,202025080549,"200 BLOCK W WINGOHOCKING ST",400,"Aggravated Assault Firearm",-75.1307415,40.01919155,40.01919155,-75.1307415,"2020","Y"
"134",276364,"22","1",2020-10-27 12:42:00,2020-10-27,08:42:00,8,202022072754,"N 17TH ST  /  W CUMBERLAND ST",400,"Aggravated Assault Firearm",-75.16004773,39.99148295,39.99148295,-75.16004773,"2020","Y"
"135",276996,"39","3",2020-10-23 00:09:00,2020-10-22,20:09:00,20,202039063878,"2800 BLOCK W CLEARFIELD ST",300,"Robbery Firearm",-75.17515498,40.00285503,40.00285503,-75.17515498,"2020","Y"
"136",278347,"14","2",2020-09-18 19:15:00,2020-09-18,15:15:00,15,202014057895,"5100 BLOCK GERMANTOWN AVE",400,"Aggravated Assault Firearm",-75.16665791,40.03089982,40.03089982,-75.16665791,"2020","Y"
"137",274394,"39","1",2020-09-19 01:52:00,2020-09-18,21:52:00,21,202039056794,"3200 BLOCK DEFENSE TER",400,"Aggravated Assault Firearm",-75.17889136,40.01084908,40.01084908,-75.17889136,"2020","Y"
"138",275758,"05","3",2020-11-06 00:34:00,2020-11-05,19:34:00,19,202005016967,"900 BLOCK GRAKYN LN",400,"Aggravated Assault Firearm",-75.23193059,40.06880259,40.06880259,-75.23193059,"2020","Y"
"139",277016,"24","1",2020-10-28 05:56:00,2020-10-28,01:56:00,1,202024077735,"3600 BLOCK JASPER ST",400,"Aggravated Assault Firearm",-75.10289348,40.00005968,40.00005967,-75.10289348,"2020","Y"
"140",278812,"02","2",2020-12-27 22:27:00,2020-12-27,17:27:00,17,202002059124,"5600 BLOCK RISING SUN AVE",300,"Robbery Firearm",-75.10908941,40.03976883,40.03976883,-75.10908941,"2020","Y"
"141",273540,"35","2",2020-11-10 03:43:00,2020-11-09,22:43:00,22,202035091296,"MASCHER ST  /  W DUNCANNON AV",300,"Robbery Firearm",-75.12470352,40.02940723,40.02940723,-75.12470352,"2020","Y"
"142",273968,"15","1",2020-12-23 22:39:00,2020-12-23,17:39:00,17,202015099998,"4900 BLOCK DARRAH ST",400,"Aggravated Assault Firearm",-75.07958866,40.01906464,40.01906464,-75.07958866,"2020","Y"
"143",279344,"15","3",2020-11-07 13:52:00,2020-11-07,08:52:00,8,202015088660,"7700 BLOCK FRANKFORD AVE",400,"Aggravated Assault Firearm",-75.03261477,40.03978092,40.03978091,-75.03261477,"2020","Y"
"144",276628,"35","1",2020-11-25 20:28:00,2020-11-25,15:28:00,15,202035095074,"N 11TH ST  /  W CHAMPLOST AVE",300,"Robbery Firearm",-75.1382086,40.04374899,40.04374899,-75.1382086,"2020","Y"
"145",278422,"25","3",2020-12-04 23:02:00,2020-12-04,18:02:00,18,202025077878,"2700 BLOCK MUTTER ST",400,"Aggravated Assault Firearm",-75.13301235,39.99279693,39.99279693,-75.13301235,"2020","Y"
"146",273143,"22","1",2020-09-13 01:39:00,2020-09-12,21:39:00,21,202022062672,"N 18TH ST  /  W DAUPHIN ST",400,"Aggravated Assault Firearm",-75.16227376,39.98871456,39.98871456,-75.16227376,"2020","Y"
"147",275845,"02","1",2020-12-21 03:19:00,2020-12-20,22:19:00,22,202002058230,"5700 BLOCK SUMMERDALE AVE",300,"Robbery Firearm",-75.09060111,40.03340805,40.03340805,-75.09060111,"2020","Y"
"148",276675,"25","4",2020-12-23 04:33:00,2020-12-22,23:33:00,23,202025081596,"2700 BLOCK N HUTCHINSON ST",400,"Aggravated Assault Firearm",-75.14688413,39.9929582,39.9929582,-75.14688413,"2020","Y"
"149",274056,"24","1",2020-09-21 15:03:00,2020-09-21,11:03:00,11,202024068050,"KENSINGTON AV  /  E ERIE AVE",400,"Aggravated Assault Firearm",-75.09485254,40.00668723,40.00668723,-75.09485254,"2020","Y"
"150",279151,"18","3",2020-12-16 23:41:00,2020-12-16,18:41:00,18,202018082321,"4800 BLOCK MARKET ST",300,"Robbery Firearm",-75.21791989,39.95834763,39.95834763,-75.21791989,"2020","Y"
"151",274536,"24","2",2020-11-10 02:16:00,2020-11-09,21:16:00,21,202024080822,"1800 BLOCK E ORLEANS ST",400,"Aggravated Assault Firearm",-75.11827483,39.99381302,39.99381302,-75.11827483,"2020","Y"
"152",276720,"24","2",2020-12-02 06:49:00,2020-12-02,01:49:00,1,202024085487,"3100 BLOCK JASPER ST",400,"Aggravated Assault Firearm",-75.11465919,39.99390385,39.99390385,-75.11465919,"2020","Y"
"153",279879,"16","1",2020-10-07 07:13:00,2020-10-07,03:13:00,3,202016037925,"3200 BLOCK BRANDYWINE ST",300,"Robbery Firearm",-75.18860175,39.9638373,39.9638373,-75.18860175,"2020","Y"
"154",279881,"02","1",2020-10-20 02:20:00,2020-10-19,22:20:00,22,202002048899,"1700 BLOCK MAGEE AVE",400,"Aggravated Assault Firearm",-75.07002835,40.0391484,40.0391484,-75.07002835,"2020","Y"
"155",276756,"12","3",2020-09-16 18:54:00,2020-09-16,14:54:00,14,202012068280,"2400 BLOCK S 64TH ST",400,"Aggravated Assault Firearm",-75.23002297,39.92385299,39.92385299,-75.23002297,"2020","Y"
"156",273252,"24","2",2020-10-04 23:27:00,2020-10-04,19:27:00,19,202024071478,"500 BLOCK E INDIANA AVE",300,"Robbery Firearm",-75.12192763,39.99443422,39.99443422,-75.12192763,"2020","Y"
"157",275954,"14","2",2020-12-11 01:11:00,2020-12-10,20:11:00,20,202014074235,"100 BLOCK E WASHINGTON LN",400,"Aggravated Assault Firearm",-75.17775695,40.04628344,40.04628344,-75.17775695,"2020","Y"
"158",275958,"24","1",2020-12-11 03:27:00,2020-12-10,22:27:00,22,202024087441,"3200 BLOCK SHELBOURNE ST",300,"Robbery Firearm",-75.11378466,39.99655374,39.99655374,-75.11378466,"2020","Y"
"159",279226,"24","2",2020-10-26 19:13:00,2020-10-26,15:13:00,15,202024077328,"2100 BLOCK E CAMBRIA ST",300,"Robbery Firearm",-75.11573221,39.98751784,39.98751784,-75.11573221,"2020","Y"
"160",277224,"02","1",2020-11-13 06:50:00,2020-11-13,01:50:00,1,202002052689,"6300 BLOCK FRONTENAC ST",300,"Robbery Firearm",-75.08211647,40.0401567,40.0401567,-75.08211647,"2020","Y"
"161",273284,"22","1",2020-09-25 17:11:00,2020-09-25,13:11:00,13,202022065386,"1000 BLOCK W OAKDALE ST",400,"Aggravated Assault Firearm",-75.14874757,39.99246786,39.99246786,-75.14874757,"2020","Y"
"162",273735,"25","4",2020-09-14 22:22:00,2020-09-14,18:22:00,18,202025060026,"1300 BLOCK W AIRDRIE ST",300,"Robbery Firearm",-75.14982912,40.00971042,40.00971042,-75.14982912,"2020","Y"
"163",274610,"24","2",2020-10-11 04:21:00,2020-10-11,00:21:00,0,202024073149,"100 BLOCK E CLEARFIELD ST",400,"Aggravated Assault Firearm",-75.12960748,39.99696562,39.99696562,-75.12960748,"2020","Y"
"164",275964,"16","1",2020-12-26 18:54:00,2020-12-26,13:54:00,13,202016047195,"1800 BLOCK BELMONT MANSION DR",300,"Robbery Firearm",-75.21497112,39.99306733,39.99306733,-75.21497112,"2020","Y"
"165",275967,"15","3",2020-10-04 07:35:00,2020-10-04,03:35:00,3,202015079490,"6900 BLOCK TORRESDALE AVE",300,"Robbery Firearm",-75.04216476,40.02651576,40.02651576,-75.04216475,"2020","Y"
"166",279501,"35","2",2020-09-28 21:01:00,2020-09-28,17:01:00,17,202035079535,"N 7TH ST  /  W ROCKLAND ST",400,"Aggravated Assault Firearm",-75.13645806,40.02625646,40.02625646,-75.13645806,"2020","Y"
"167",279503,"19","2",2020-12-11 00:04:00,2020-12-10,19:04:00,19,202019075213,"1200 BLOCK N 53RD ST",300,"Robbery Firearm",-75.22752472,39.97281945,39.97281945,-75.22752472,"2020","Y"
"168",277243,"14","3",2020-10-12 22:30:00,2020-10-12,18:30:00,18,202014063071,"6500 BLOCK BERDAN ST",400,"Aggravated Assault Firearm",-75.18500294,40.04773515,40.04773515,-75.18500294,"2020","Y"
"169",273756,"18","3",2020-12-13 22:20:00,2020-12-13,17:20:00,17,202018081772,"S 43RD ST  /  LARCHWOOD AV",300,"Robbery Firearm",-75.20927092,39.94988368,39.94988368,-75.20927092,"2020","Y"
"170",274196,"22","3",2020-12-24 04:37:00,2020-12-23,23:37:00,23,202022083782,"1300 BLOCK N CARLISLE ST",300,"Robbery Firearm",-75.16005114,39.97334731,39.97334731,-75.16005114,"2020","Y"
"171",274635,"14","3",2020-10-09 11:53:00,2020-10-09,07:53:00,7,202014062414,"5600 BLOCK GREENE ST",400,"Aggravated Assault Firearm",-75.17548687,40.0334219,40.0334219,-75.17548686,"2020","Y"
"172",278599,"14","4",2020-09-02 16:46:00,2020-09-02,12:46:00,12,202014054366,"7700 BLOCK STENTON AVE",400,"Aggravated Assault Firearm",-75.19083458,40.07412357,40.07412357,-75.19083459,"2020","Y"
"173",279559,"25","4",2020-12-04 14:00:00,2020-12-04,09:00:00,9,202025077786,"3600 BLOCK N MARVINE ST",400,"Aggravated Assault Firearm",-75.14666911,40.00866292,40.00866292,-75.14666911,"2020","Y"
"174",276427,"14","2",2020-09-22 06:28:00,2020-09-22,02:28:00,2,202014058586,"500 BLOCK E RITTENHOUSE ST",300,"Robbery Firearm",-75.17000463,40.04381247,40.04381247,-75.17000463,"2020","Y"
"175",278626,"22","1",2020-09-13 01:04:00,2020-09-12,21:04:00,21,202022062668,"N 18TH ST  /  W DAUPHIN ST",400,"Aggravated Assault Firearm",-75.16227376,39.98871456,39.98871456,-75.16227376,"2020","Y"
"176",274262,"35","1",2020-11-27 23:39:00,2020-11-27,18:39:00,18,202035095571,"N 12TH ST  /  MEDARY AV",400,"Aggravated Assault Firearm",-75.14011971,40.04243375,40.04243375,-75.14011971,"2020","Y"
"177",276050,"22","2",2020-09-02 20:38:00,2020-09-02,16:38:00,16,202022060064,"N CROSKEY ST  /  W NORRIS ST",300,"Robbery Firearm",-75.17072287,39.98499878,39.98499878,-75.17072287,"2020","Y"
"178",276059,"26","1",2020-11-07 18:32:00,2020-11-07,13:32:00,13,202026041795,"600 BLOCK W YORK ST",400,"Aggravated Assault Firearm",-75.1431715,39.98777586,39.98777586,-75.1431715,"2020","Y"
"179",276240,"22","3",2020-10-19 00:57:00,2020-10-18,20:57:00,20,202022070739,"1700 BLOCK N GRATZ ST",400,"Aggravated Assault Firearm",-75.16506146,39.97962256,39.97962256,-75.16506146,"2020","Y"
"180",276442,"19","2",2020-11-04 00:28:00,2020-11-03,19:28:00,19,202019068486,"5200 BLOCK KERSHAW ST",400,"Aggravated Assault Firearm",-75.22764507,39.97347263,39.97347263,-75.22764507,"2020","Y"
"181",276454,"12","4",2020-11-03 20:40:00,2020-11-03,15:40:00,15,202012079548,"5400 BLOCK WILLOWS AVE",300,"Robbery Firearm",-75.22818687,39.94414329,39.94414329,-75.22818687,"2020","Y"
"182",276879,"25","4",2020-10-27 05:44:00,2020-10-27,01:44:00,1,202025070123,"1300 BLOCK W GLENWOOD AVE",400,"Aggravated Assault Firearm",-75.15224128,39.99744089,39.99744089,-75.15224128,"2020","Y"
"183",276887,"14","2",2020-12-14 21:11:00,2020-12-14,16:11:00,16,202014074885,"0 BLOCK E CHELTEN AVE",400,"Aggravated Assault Firearm",-75.17417044,40.03722064,40.03722064,-75.17417044,"2020","Y"
"184",278236,"39","1",2020-10-02 02:32:00,2020-10-01,22:32:00,22,202039059588,"4100 BLOCK RIDGE AVE",300,"Robbery Firearm",-75.19432163,40.00850532,40.00850532,-75.19432163,"2020","Y"
"185",274274,"06","3",2020-11-07 02:26:00,2020-11-06,21:26:00,21,202006044050,"200 BLOCK S CHRISTOPHER COLUMBUS BLVD",300,"Robbery Firearm",-75.14178389,39.94642343,39.94642343,-75.14178389,"2020","Y"
"186",276094,"02","1",2020-09-26 04:55:00,2020-09-26,00:55:00,0,202002044708,"1000 BLOCK ROBBINS ST",400,"Aggravated Assault Firearm",-75.08511818,40.04183943,40.04183943,-75.08511818,"2020","Y"
"187",276097,"22","2",2020-09-18 01:26:00,2020-09-17,21:26:00,21,202022063756,"2400 BLOCK W HAGERT ST",400,"Aggravated Assault Firearm",-75.17318534,39.99242113,39.99242113,-75.17318534,"2020","Y"
"188",276293,"19","2",2020-10-24 21:21:00,2020-10-24,17:21:00,17,202019066405,"1400 BLOCK N CONESTOGA ST",300,"Robbery Firearm",-75.23043792,39.97380108,39.97380108,-75.23043792,"2020","Y"
"189",276463,"24","2",2020-12-25 20:36:00,2020-12-25,15:36:00,15,202024090520,"F ST  /  E ALLEGHENY AV",400,"Aggravated Assault Firearm",-75.11773363,39.99542497,39.99542497,-75.11773363,"2020","Y"
"190",278685,"39","2",2020-12-09 21:25:00,2020-12-09,16:25:00,16,202039072732,"2800 BLOCK FOX ST",300,"Robbery Firearm",-75.17710008,40.01000718,40.01000718,-75.17710008,"2020","Y"
"191",276109,"19","1",2020-11-30 23:32:00,2020-11-30,18:32:00,18,202019073225,"6000 BLOCK HADDINGTON LN",300,"Robbery Firearm",-75.24051001,39.97738328,39.97738328,-75.24051001,"2020","Y"
"192",276112,"15","1",2020-09-16 00:13:00,2020-09-15,20:13:00,20,202015073769,"1500 BLOCK FOULKROD ST",400,"Aggravated Assault Firearm",-75.08432669,40.01881378,40.01881378,-75.08432669,"2020","Y"
"193",276123,"24","2",2020-10-06 18:56:00,2020-10-06,14:56:00,14,202024071964,"F ST  /  E ALLEGHENY AV",300,"Robbery Firearm",-75.11773363,39.99542497,39.99542497,-75.11773363,"2020","Y"
"194",276296,"19","1",2020-09-02 09:45:00,2020-09-02,05:45:00,5,202019055184,"1600 BLOCK REDFIELD ST",400,"Aggravated Assault Firearm",-75.23940557,39.97602006,39.97602006,-75.23940557,"2020","Y"
"195",279643,"15","2",2020-10-02 14:22:00,2020-10-02,10:22:00,10,202015078918,"5800 BLOCK AKRON ST",400,"Aggravated Assault Firearm",-75.07847568,40.02821726,40.02821726,-75.07847568,"2020","Y"
"196",276951,"01","2",2020-09-11 20:37:00,2020-09-11,16:37:00,16,202001023711,"2800 BLOCK W PASSYUNK AVE",400,"Aggravated Assault Firearm",-75.19386626,39.92113825,39.92113825,-75.19386626,"2020","Y"
"197",273886,"18","2",2020-11-17 18:39:00,2020-11-17,13:39:00,13,202018077255,"600 BLOCK S 49TH ST",300,"Robbery Firearm",-75.22108965,39.9490358,39.9490358,-75.22108965,"2020","Y"
"198",275704,"15","1",2020-10-14 10:51:00,2020-10-14,06:51:00,6,202015082120,"4000 BLOCK TORRESDALE AVE",300,"Robbery Firearm",-75.09181792,40.00601676,40.00601676,-75.09181792,"2020","Y"
"199",276133,"03","2",2020-09-17 15:40:00,2020-09-17,11:40:00,11,202003049266,"500 BLOCK HOFFMAN ST",400,"Aggravated Assault Firearm",-75.1546154,39.92447497,39.92447497,-75.1546154,"2020","Y"
"200",278319,"24","2",2020-11-09 00:11:00,2020-11-08,19:11:00,19,202024080582,"3100 BLOCK RORER ST",400,"Aggravated Assault Firearm",-75.12064052,39.99580454,39.99580454,-75.12064052,"2020","Y"
"201",274374,"25","1",2020-09-10 17:02:00,2020-09-10,13:02:00,13,202025058927,"3800 BLOCK OLD YORK RD",400,"Aggravated Assault Firearm",-75.14732794,40.01039122,40.01039122,-75.14732794,"2020","Y"
"202",269432,"08","2",2020-11-16 08:19:00,2020-11-16,03:19:00,3,202008034895,"10800 BLOCK KESWICK RD",300,"Robbery Firearm",-74.98438702,40.07887904,40.07887904,-74.98438702,"2020","Y"
"203",271935,"19","2",2020-10-28 06:55:00,2020-10-28,02:55:00,2,202019067199,"200 BLOCK N EDGEWOOD ST",300,"Robbery Firearm",-75.24101043,39.96562753,39.96562753,-75.24101043,"2020","Y"
"204",271250,"22","2",2020-10-31 23:56:00,2020-10-31,19:56:00,19,202022073742,"N 26TH ST  /  W YORK ST",400,"Aggravated Assault Firearm",-75.17495333,39.99188344,39.99188343,-75.17495333,"2020","Y"
"205",265959,"22","2",2020-09-28 05:35:00,2020-09-28,01:35:00,1,202022066009,"RIDGE AV  /  W SUSQUEHANNA AV",400,"Aggravated Assault Firearm",-75.1844072,39.98993892,39.98993892,-75.1844072,"2020","Y"
"206",265961,"19","2",2020-12-03 15:40:00,2020-12-03,10:40:00,10,202019073749,"5700 BLOCK W GIRARD AVE",300,"Robbery Firearm",-75.23420501,39.97050947,39.97050947,-75.23420501,"2020","Y"
"207",266447,"02","3",2020-11-29 03:21:00,2020-11-28,22:21:00,22,202002055091,"7000 BLOCK CASTOR AVE",400,"Aggravated Assault Firearm",-75.07030378,40.04683136,40.04683136,-75.07030378,"2020","Y"
"208",271966,"12","1",2020-10-25 10:30:00,2020-10-25,06:30:00,6,202012077804,"8400 BLOCK BARTRAM AVE",300,"Robbery Firearm",-75.24503462,39.89038563,39.89038563,-75.24503462,"2020","Y"
"209",271301,"19","2",2020-11-21 22:38:00,2020-11-21,17:38:00,17,202019071675,"5900 BLOCK CALLOWHILL ST",400,"Aggravated Assault Firearm",-75.23802304,39.96792249,39.96792249,-75.23802304,"2020","Y"
"210",266909,"39","2",2020-11-27 01:45:00,2020-11-26,20:45:00,20,202039070472,"2100 BLOCK W BELLVUE ST",400,"Aggravated Assault Firearm",-75.1637907,40.00539979,40.00539979,-75.1637907,"2020","Y"
"211",266915,"12","2",2020-11-26 09:59:00,2020-11-26,04:59:00,4,202012083819,"2400 BLOCK S 70TH ST",300,"Robbery Firearm",-75.23883373,39.91839553,39.91839553,-75.23883373,"2020","Y"
"212",271333,"19","3",2020-11-23 13:47:00,2020-11-23,08:47:00,8,202019071939,"N 52ND ST  /  LANCASTER AV",400,"Aggravated Assault Firearm",-75.22676806,39.97722038,39.97722038,-75.22676806,"2020","Y"
"213",271355,"25","1",2020-11-07 15:44:00,2020-11-07,10:44:00,10,202025072496,"700 BLOCK W PIKE ST",400,"Aggravated Assault Firearm",-75.13981827,40.01094836,40.01094836,-75.13981827,"2020","Y"
"214",271362,"39","3",2020-09-29 19:38:00,2020-09-29,15:38:00,15,202039059029,"2800 BLOCK N CROSKEY ST",300,"Robbery Firearm",-75.16804057,39.9973251,39.9973251,-75.16804057,"2020","Y"
"215",271800,"19","2",2020-12-21 03:10:00,2020-12-20,22:10:00,22,202019077095,"0 BLOCK N HOBART ST",300,"Robbery Firearm",-75.23793368,39.96245424,39.96245423,-75.23793368,"2020","Y"
"216",271846,"39","3",2020-09-09 20:55:00,2020-09-09,16:55:00,16,202039054843,"2700 BLOCK N DOVER ST",400,"Aggravated Assault Firearm",-75.17799075,39.99697222,39.99697222,-75.17799075,"2020","Y"
"217",268367,"19","3",2020-12-05 02:06:00,2020-12-04,21:06:00,21,202019074098,"4700 BLOCK W GIRARD AVE",300,"Robbery Firearm",-75.21633447,39.97279991,39.97279991,-75.21633446,"2020","Y"
"218",271854,"18","2",2020-12-16 01:31:00,2020-12-15,20:31:00,20,202018082156,"5100 BLOCK IRVING ST",300,"Robbery Firearm",-75.2258757,39.95522664,39.95522664,-75.2258757,"2020","Y"
"219",266574,"07","3",2020-12-07 17:06:00,2020-12-07,12:06:00,12,202007026845,"11500 BLOCK E ROOSEVELT BLVD",400,"Aggravated Assault Firearm",-75.00339643,40.10384274,40.10384274,-75.00339643,"2020","Y"
"220",268387,"19","3",2020-11-26 04:39:00,2020-11-25,23:39:00,23,202019072454,"5500 BLOCK HUNTER ST",400,"Aggravated Assault Firearm",-75.2320249,39.97762783,39.97762783,-75.2320249,"2020","Y"
"221",272103,"02","2",2020-12-17 02:54:00,2020-12-16,21:54:00,21,202002057757,"6700 BLOCK WHITAKER AVE",400,"Aggravated Assault Firearm",-75.0845125,40.04911278,40.04911278,-75.0845125,"2020","Y"
"222",272136,"12","4",2020-11-15 21:22:00,2020-11-15,16:22:00,16,202012081751,"5700 BLOCK BALTIMORE AVE",300,"Robbery Firearm",-75.23873129,39.94619519,39.94619519,-75.23873128,"2020","Y"
"223",271029,"01","1",2020-10-23 18:08:00,2020-10-23,14:08:00,14,202001026728,"1900 BLOCK S BEECHWOOD ST",300,"Robbery Firearm",-75.18165719,39.92843589,39.92843589,-75.18165719,"2020","Y"
"224",267091,"24","2",2020-11-04 23:20:00,2020-11-04,18:20:00,18,202024079659,"500 BLOCK E INDIANA AVE",400,"Aggravated Assault Firearm",-75.12192763,39.99443422,39.99443422,-75.12192763,"2020","Y"
"225",267092,"17","1",2020-09-18 21:30:00,2020-09-18,17:30:00,17,202017026349,"2500 BLOCK WASHINGTON AVE",400,"Aggravated Assault Firearm",-75.18495795,39.94009341,39.94009341,-75.18495795,"2020","Y"
"226",268886,"24","2",2020-10-02 06:02:00,2020-10-02,02:02:00,2,202024070861,"3100 BLOCK ELLA ST",300,"Robbery Firearm",-75.12661897,39.99726068,39.99726068,-75.12661897,"2020","Y"
"227",269280,"22","1",2020-10-27 05:30:00,2020-10-27,01:30:00,1,202022072662,"2100 BLOCK N BROAD ST",300,"Robbery Firearm",-75.15540964,39.98618894,39.98618894,-75.15540964,"2020","Y"
"228",269284,"35","3",2020-09-22 04:58:00,2020-09-22,00:58:00,0,202035077737,"6800 BLOCK N 15TH ST",300,"Robbery Firearm",-75.14251144,40.05691851,40.05691851,-75.14251144,"2020","Y"
"229",271500,"18","2",2020-12-06 02:51:00,2020-12-05,21:51:00,21,202018080261,"5600 BLOCK SANSOM ST",400,"Aggravated Assault Firearm",-75.23333636,39.95871242,39.95871242,-75.23333636,"2020","Y"
"230",271506,"39","3",2020-10-15 16:27:00,2020-10-15,12:27:00,12,202039062324,"2800 BLOCK N GARNET ST",400,"Aggravated Assault Firearm",-75.16273139,39.99664003,39.99664003,-75.16273139,"2020","Y"
"231",271510,"24","1",2020-11-28 05:45:00,2020-11-28,00:45:00,0,202024084714,"3200 BLOCK G ST",400,"Aggravated Assault Firearm",-75.11534559,39.99725089,39.99725089,-75.11534559,"2020","Y"
"232",266218,"35","3",2020-12-09 04:24:00,2020-12-08,23:24:00,23,202035098700,"68TH AV  /  N 17TH ST",300,"Robbery Firearm",-75.14566237,40.05732315,40.05732315,-75.14566237,"2020","Y"
"233",266664,"26","3",2020-12-01 14:52:00,2020-12-01,09:52:00,9,202026044418,"1300 BLOCK E BERKS ST",400,"Aggravated Assault Firearm",-75.12670363,39.97324426,39.97324426,-75.12670363,"2020","Y"
"234",266668,"35","2",2020-09-26 04:40:00,2020-09-26,00:40:00,0,202035078868,"W GALE ST  /  MASCHER ST",400,"Aggravated Assault Firearm",-75.12395428,40.0348566,40.0348566,-75.12395428,"2020","Y"
"235",268479,"18","1",2020-12-27 23:19:00,2020-12-27,18:19:00,18,202018084206,"S 62ND ST  /  DELANCEY ST",300,"Robbery Firearm",-75.24585109,39.95705437,39.95705437,-75.24585109,"2020","Y"
"236",271121,"07","3",2020-10-06 13:24:00,2020-10-06,09:24:00,9,202007022008,"11500 BLOCK E ROOSEVELT BLVD",300,"Robbery Firearm",-75.00339643,40.10384274,40.10384274,-75.00339643,"2020","Y"
"237",266289,"15","1",2020-11-05 09:57:00,2020-11-05,04:57:00,4,202015088125,"4600 BLOCK FRANKFORD AVE",300,"Robbery Firearm",-75.08366235,40.01680597,40.01680597,-75.08366235,"2020","Y"
"238",271594,"22","1",2020-09-13 01:39:00,2020-09-12,21:39:00,21,202022062671,"N 18TH ST  /  W DAUPHIN ST",400,"Aggravated Assault Firearm",-75.16227376,39.98871456,39.98871456,-75.16227376,"2020","Y"
"239",271598,"15","2",2020-12-10 01:23:00,2020-12-09,20:23:00,20,202015096727,"4000 BLOCK COMLY ST",300,"Robbery Firearm",-75.06795923,40.02659215,40.02659215,-75.06795923,"2020","Y"
"240",265854,"12","2",2020-11-19 08:19:00,2020-11-19,03:19:00,3,202012082420,"6500 BLOCK UPLAND ST",400,"Aggravated Assault Firearm",-75.23629065,39.92723613,39.92723613,-75.23629066,"2020","Y"
"241",269182,"25","3",2020-10-13 01:56:00,2020-10-12,21:56:00,21,202025066814,"3200 BLOCK N 3RD ST",300,"Robbery Firearm",-75.135654,39.99938492,39.99938492,-75.135654,"2020","Y"
"242",265878,"22","1",2020-10-27 13:36:00,2020-10-27,09:36:00,9,202022072748,"1700 BLOCK W CUMBERLAND ST",400,"Aggravated Assault Firearm",-75.16004773,39.99148295,39.99148295,-75.16004773,"2020","Y"
"243",268580,"16","1",2020-10-24 09:17:00,2020-10-24,05:17:00,5,202016040142,"3900 BLOCK BRANDYWINE ST",300,"Robbery Firearm",-75.20076892,39.962297,39.962297,-75.20076892,"2020","Y"
"244",269016,"24","1",2020-10-28 05:57:00,2020-10-28,01:57:00,1,202024077736,"3600 BLOCK JASPER ST",400,"Aggravated Assault Firearm",-75.10289348,40.00005968,40.00005967,-75.10289348,"2020","Y"
"245",269034,"24","3",2020-10-04 08:31:00,2020-10-04,04:31:00,4,202024071355,"2300 BLOCK E TIOGA ST",400,"Aggravated Assault Firearm",-75.10030392,39.9933317,39.9933317,-75.10030392,"2020","Y"
"246",269426,"12","1",2020-12-21 03:16:00,2020-12-20,22:16:00,22,202012088827,"8500 BLOCK LINDBERGH BLVD",400,"Aggravated Assault Firearm",-75.25343828,39.89411481,39.89411481,-75.25343828,"2020","Y"
"247",253245,"24","2",2020-08-05 20:53:00,2020-08-05,16:53:00,16,202024055882,"2000 BLOCK E ALLEGHENY AVE",400,"Aggravated Assault Firearm",-75.10971177,39.99234406,39.99234406,-75.10971177,"2020","Y"
"248",253249,"18","2",2020-03-05 15:43:00,2020-03-05,10:43:00,10,202018019125,"5500 BLOCK LUDLOW ST",300,"Robbery Firearm",-75.23096354,39.95996346,39.95996346,-75.23096354,"2020","Y"
"249",256479,"12","3",2020-08-11 14:29:00,2020-08-11,10:29:00,10,202012059759,"5300 BLOCK KINGSESSING AVE",400,"Aggravated Assault Firearm",-75.22164,39.93861718,39.93861718,-75.22164,"2020","Y"
"250",256489,"35","3",2020-04-06 02:32:00,2020-04-05,22:32:00,22,202035028978,"6800 BLOCK OGONTZ AVE",400,"Aggravated Assault Firearm",-75.14929147,40.05752907,40.05752907,-75.14929147,"2020","Y"
"251",256541,"39","2",2020-06-01 18:13:00,2020-06-01,14:13:00,14,202039036248,"2900 BLOCK ROBERTS AVE",300,"Robbery Firearm",-75.17805943,40.01087549,40.01087548,-75.17805943,"2020","Y"
"252",253122,"35","3",2020-03-01 08:51:00,2020-03-01,03:51:00,3,202035018985,"1800 BLOCK W CHAMPLOST AVE",400,"Aggravated Assault Firearm",-75.1519855,40.04506182,40.04506182,-75.1519855,"2020","Y"
"253",288513,"19","3",2020-12-23 01:45:00,2020-12-22,20:45:00,20,202019077511,"2200 BLOCK N 57TH ST",400,"Aggravated Assault Firearm",-75.23749123,39.98800566,39.98800565,-75.23749123,"2020","Y"
"254",288537,"22","3",2020-10-16 04:22:00,2020-10-16,00:22:00,0,202022070016,"1600 BLOCK N 17TH ST",400,"Aggravated Assault Firearm",-75.1627019,39.97930759,39.97930759,-75.1627019,"2020","Y"
"255",288704,"18","3",2020-03-30 01:36:00,2020-03-29,21:36:00,21,202018025617,"4500 BLOCK PINE ST",300,"Robbery Firearm",-75.21437556,39.95206296,39.95206296,-75.21437556,"2020","Y"
"256",288713,"22","4",2020-10-06 15:47:00,2020-10-06,11:47:00,11,202022067770,"RIDGE AV  /  JUDSON ST",400,"Aggravated Assault Firearm",-75.17361633,39.98145854,39.98145854,-75.17361633,"2020","Y"
"257",288715,"12","3",2020-12-14 00:39:00,2020-12-13,19:39:00,19,202012087502,"5200 BLOCK GRAYS AVE",300,"Robbery Firearm",-75.21436,39.9352466,39.9352466,-75.21436,"2020","Y"
"258",288716,"22","4",2020-12-20 23:41:00,2020-12-20,18:41:00,18,202022083127,"2600 BLOCK W GIRARD AVE",300,"Robbery Firearm",-75.1788603,39.97397334,39.97397334,-75.17886031,"2020","Y"
"259",288720,"18","3",2020-09-14 03:10:00,2020-09-13,23:10:00,23,202018063498,"4500 BLOCK PINE ST",300,"Robbery Firearm",-75.21239651,39.95182048,39.95182048,-75.21239651,"2020","Y"
"260",293799,"12","3",2020-11-03 20:31:00,2020-11-03,15:31:00,15,202012079549,"2400 BLOCK S 54TH ST",300,"Robbery Firearm",-75.21637353,39.9341747,39.9341747,-75.21637353,"2020","Y"
"261",293808,"26","2",2020-09-25 01:52:00,2020-09-24,21:52:00,21,202026035885,"1300 BLOCK N 8TH ST",300,"Robbery Firearm",-75.14936305,39.97326529,39.97326529,-75.14936305,"2020","Y"
"262",288903,"22","2",2020-08-26 18:23:00,2020-08-26,14:23:00,14,202022058400,"3300 BLOCK RIDGE AVE",400,"Aggravated Assault Firearm",-75.1864882,39.99335739,39.99335739,-75.18648819,"2020","Y"
"263",288918,"22","1",2020-11-13 17:08:00,2020-11-13,12:08:00,12,202022076106,"N 22ND ST  /  W NORRIS ST",400,"Aggravated Assault Firearm",-75.16991685,39.98489995,39.98489995,-75.16991685,"2020","Y"
"264",289337,"15","1",2020-10-09 02:53:00,2020-10-08,22:53:00,22,202015080762,"4900 BLOCK FRANKFORD AVE",400,"Aggravated Assault Firearm",-75.08092635,40.01976492,40.01976492,-75.08092635,"2020","Y"
"265",289345,"16","1",2020-12-30 18:49:00,2020-12-30,13:49:00,13,202016047719,"1900 BLOCK BELMONT MANSION DR",300,"Robbery Firearm",-75.21497112,39.99306733,39.99306733,-75.21497112,"2020","Y"
"266",289782,"25","4",2020-11-23 05:56:00,2020-11-23,00:56:00,0,202025075676,"2800 BLOCK N 13TH ST",300,"Robbery Firearm",-75.15204427,39.995251,39.995251,-75.15204427,"2020","Y"
"267",290244,"14","1",2020-12-27 21:13:00,2020-12-27,16:13:00,16,202014077053,"1000 BLOCK E WOODLAWN AVE",400,"Aggravated Assault Firearm",-75.16057233,40.04791179,40.04791178,-75.16057233,"2020","Y"
"268",290669,"24","1",2020-10-02 17:00:00,2020-10-02,13:00:00,13,202024070942,"4000 BLOCK KENSINGTON AVE",400,"Aggravated Assault Firearm",-75.09485254,40.00668723,40.00668723,-75.09485254,"2020","Y"
"269",291107,"17","2",2020-12-04 01:45:00,2020-12-03,20:45:00,20,202017033520,"S 27TH ST  /  DICKINSON ST",400,"Aggravated Assault Firearm",-75.18941873,39.93443843,39.93443843,-75.18941873,"2020","Y"
"270",291117,"03","2",2020-09-30 04:50:00,2020-09-30,00:50:00,0,202003051292,"S 3RD ST  /  SNYDER AV",300,"Robbery Firearm",-75.15107672,39.92198859,39.92198859,-75.15107672,"2020","Y"
"271",291119,"26","1",2020-10-03 21:32:00,2020-10-03,17:32:00,17,202026037176,"2400 BLOCK N 5TH ST",400,"Aggravated Assault Firearm",-75.14120232,39.9875247,39.9875247,-75.14120232,"2020","Y"
"272",291121,"15","1",2020-11-29 07:14:00,2020-11-29,02:14:00,2,202015094217,"2300 BLOCK ORTHODOX ST",300,"Robbery Firearm",-75.0781973,40.00742014,40.00742014,-75.0781973,"2020","Y"
"273",291128,"15","2",2020-10-27 08:06:00,2020-10-27,04:06:00,4,202015085900,"5900 BLOCK CHARLES ST",300,"Robbery Firearm",-75.06628301,40.0233602,40.0233602,-75.06628301,"2020","Y"
"274",291559,"18","3",2020-12-16 05:16:00,2020-12-16,00:16:00,0,202018082195,"4200 BLOCK CHESTNUT ST",300,"Robbery Firearm",-75.20634544,39.95614669,39.95614669,-75.20634544,"2020","Y"
"275",291564,"26","2",2020-11-17 21:48:00,2020-11-17,16:48:00,16,202026042975,"1500 BLOCK N FRANKLIN ST",400,"Aggravated Assault Firearm",-75.14781279,39.97594012,39.97594012,-75.14781279,"2020","Y"
"276",291572,"02","2",2020-11-05 02:48:00,2020-11-04,21:48:00,21,202002051485,"600 BLOCK E GODFREY AVE",400,"Aggravated Assault Firearm",-75.10157551,40.03830255,40.03830255,-75.10157551,"2020","Y"
"277",291990,"35","2",2020-10-23 15:54:00,2020-10-23,11:54:00,11,202035086728,"N 2ND ST  /  W CLARKSON AV",300,"Robbery Firearm",-75.1257282,40.03425733,40.03425733,-75.1257282,"2020","Y"
"278",291998,"35","2",2020-12-24 06:59:00,2020-12-24,01:59:00,1,202035102677,"N 13TH ST  /  W ROCKLAND ST",400,"Aggravated Assault Firearm",-75.14503701,40.02735489,40.02735489,-75.14503701,"2020","Y"
"279",292015,"25","4",2020-11-07 12:06:00,2020-11-07,07:06:00,7,202025072470,"2900 BLOCK N 11TH ST",300,"Robbery Firearm",-75.14847333,39.99675187,39.99675187,-75.14847333,"2020","Y"
"280",292433,"12","2",2020-10-03 00:33:00,2020-10-02,20:33:00,20,202012072077,"6000 BLOCK REGENT ST",400,"Aggravated Assault Firearm",-75.23214363,39.9325669,39.93256689,-75.23214363,"2020","Y"
"281",292439,"14","1",2020-12-26 05:43:00,2020-12-26,00:43:00,0,202014076827,"6700 BLOCK CRITTENDEN ST",400,"Aggravated Assault Firearm",-75.17625482,40.06384967,40.06384967,-75.17625482,"2020","Y"
"282",292457,"01","2",2020-10-19 00:37:00,2020-10-18,20:37:00,20,202001026335,"1800 BLOCK JOHNSTON ST",400,"Aggravated Assault Firearm",-75.17862435,39.91640694,39.91640694,-75.17862435,"2020","Y"
"283",287236,"25","4",2020-09-25 03:40:00,2020-09-24,23:40:00,23,202025062425,"2900 BLOCK N 11TH ST",400,"Aggravated Assault Firearm",-75.14847333,39.99675187,39.99675187,-75.14847333,"2020","Y"
"284",287248,"14","2",2020-10-24 06:46:00,2020-10-24,02:46:00,2,202014065517,"E UPSAL ST  /  MUSGRAVE ST",300,"Robbery Firearm",-75.1796192,40.05196526,40.05196526,-75.1796192,"2020","Y"
"285",287253,"22","1",2020-12-16 17:47:00,2020-12-16,12:47:00,12,202022082442,"2400 BLOCK N GARNET ST",400,"Aggravated Assault Firearm",-75.16407645,39.99047326,39.99047325,-75.16407645,"2020","Y"
"286",287660,"24","1",2020-12-13 04:39:00,2020-12-12,23:39:00,23,202024087908,"3300 BLOCK KENSINGTON AVE",400,"Aggravated Assault Firearm",-75.10929703,39.99875419,39.99875419,-75.10929703,"2020","Y"
"287",293377,"14","1",2020-09-04 04:11:00,2020-09-04,00:11:00,0,202014054660,"800 BLOCK E CHELTEN AVE",400,"Aggravated Assault Firearm",-75.16483366,40.04547734,40.04547734,-75.16483366,"2020","Y"
"288",293387,"22","4",2020-10-01 17:51:00,2020-10-01,13:51:00,13,202022066704,"N 28TH ST  /  CECIL B MOORE AV",400,"Aggravated Assault Firearm",-75.18027973,39.98158723,39.98158723,-75.18027973,"2020","Y"
"289",293813,"08","1",2020-12-10 23:04:00,2020-12-10,18:04:00,18,202008037654,"8000 BLOCK FRANKFORD AVE",300,"Robbery Firearm",-75.02825877,40.04137293,40.04137293,-75.02825877,"2020","Y"
"290",293815,"24","1",2020-10-03 23:04:00,2020-10-03,19:04:00,19,202024071238,"1900 BLOCK E PIKE ST",400,"Aggravated Assault Firearm",-75.09439374,40.00371822,40.00371822,-75.09439374,"2020","Y"
"291",293818,"24","2",2020-06-01 21:21:00,2020-06-01,17:21:00,17,202024040721,"3100 BLOCK TULIP ST",400,"Aggravated Assault Firearm",-75.10978127,39.98837629,39.98837629,-75.10978127,"2020","Y"
"292",293819,"14","3",2020-12-24 06:02:00,2020-12-24,01:02:00,1,202014076544,"6900 BLOCK CRESHEIM RD",400,"Aggravated Assault Firearm",-75.18990636,40.05357737,40.05357737,-75.18990636,"2020","Y"
"293",293824,"14","2",2020-11-02 23:18:00,2020-11-02,18:18:00,18,202014067420,"5800 BLOCK MORTON ST",400,"Aggravated Assault Firearm",-75.17220331,40.04293134,40.04293134,-75.17220331,"2020","Y"
"294",288932,"22","4",2020-11-28 05:31:00,2020-11-28,00:31:00,0,202022078820,"1600 BLOCK N 33RD ST",400,"Aggravated Assault Firearm",-75.18854019,39.98189049,39.98189049,-75.18854019,"2020","Y"
"295",289366,"12","1",2020-09-02 02:48:00,2020-09-01,22:48:00,22,202012064724,"7600 BLOCK BUIST AVE",300,"Robbery Firearm",-75.24544922,39.90840369,39.90840369,-75.24544922,"2020","Y"
"296",289806,"25","3",2020-12-29 14:10:00,2020-12-29,09:10:00,9,202025082717,"3400 BLOCK N BODINE ST",400,"Aggravated Assault Firearm",-75.1341338,40.00388254,40.00388254,-75.1341338,"2020","Y"
"297",289813,"15","2",2020-11-10 13:33:00,2020-11-10,08:33:00,8,202015089417,"E CHELTENHAM AV  /  CHARLES ST",400,"Aggravated Assault Firearm",-75.06990549,40.020273,40.020273,-75.0699055,"2020","Y"
"298",289818,"25","3",2020-09-21 02:48:00,2020-09-20,22:48:00,22,202025061541,"3300 BLOCK G ST",400,"Aggravated Assault Firearm",-75.11501576,39.99880068,39.99880068,-75.11501576,"2020","Y"
"299",290255,"22","4",2020-10-18 08:18:00,2020-10-18,04:18:00,4,202022070562,"2500 BLOCK NICHOLAS ST",300,"Robbery Firearm",-75.17579064,39.98050377,39.98050377,-75.17579064,"2020","Y"
"300",290259,"24","3",2020-10-30 16:21:00,2020-10-30,12:21:00,12,202024078571,"3400 BLOCK WEIKEL ST",400,"Aggravated Assault Firearm",-75.10070257,39.99379253,39.99379253,-75.10070257,"2020","Y"
"301",290269,"24","2",2020-11-07 10:56:00,2020-11-07,05:56:00,5,202024080215,"3100 BLOCK E ST",400,"Aggravated Assault Firearm",-75.11943142,39.99677815,39.99677815,-75.11943142,"2020","Y"
"302",291140,"14","2",2020-09-04 03:54:00,2020-09-03,23:54:00,23,202014054664,"700 BLOCK E CHELTEN AVE",400,"Aggravated Assault Firearm",-75.16483366,40.04547734,40.04547734,-75.16483366,"2020","Y"
"303",291155,"03","3",2020-09-27 05:22:00,2020-09-27,01:22:00,1,202003050741,"800 BLOCK DUDLEY ST",300,"Robbery Firearm",-75.15938235,39.9247286,39.9247286,-75.15938235,"2020","Y"
"304",291574,"15","3",2020-11-06 01:49:00,2020-11-05,20:49:00,20,202015088305,"3500 BLOCK ALDINE ST",300,"Robbery Firearm",-75.03972575,40.03718936,40.03718936,-75.03972575,"2020","Y"
"305",291593,"25","2",2020-11-30 02:22:00,2020-11-29,21:22:00,21,202025076957,"4700 BLOCK N 2ND ST",300,"Robbery Firearm",-75.12814546,40.0229022,40.0229022,-75.12814545,"2020","Y"
"306",292024,"35","1",2020-12-21 05:18:00,2020-12-21,00:18:00,0,202035101957,"900 BLOCK W CHAMPLOST AVE",300,"Robbery Firearm",-75.13507897,40.04334759,40.04334759,-75.13507897,"2020","Y"
"307",292034,"15","1",2020-10-12 01:18:00,2020-10-11,21:18:00,21,202015081553,"4900 BLOCK DARRAH ST",400,"Aggravated Assault Firearm",-75.07958866,40.01906464,40.01906464,-75.07958866,"2020","Y"
"308",292462,"22","1",2020-10-27 02:16:00,2020-10-26,22:16:00,22,202022072646,"2200 BLOCK N VAN PELT ST",400,"Aggravated Assault Firearm",-75.16807862,39.9894563,39.9894563,-75.16807862,"2020","Y"
"309",292481,"12","3",2020-09-06 06:34:00,2020-09-06,02:34:00,2,202012065714,"5200 BLOCK WOODLAND AVE",400,"Aggravated Assault Firearm",-75.21672135,39.93796511,39.93796511,-75.21672135,"2020","Y"
"310",292916,"19","3",2020-11-30 01:57:00,2020-11-29,20:57:00,20,202019073086,"5200 BLOCK JEFFERSON ST",400,"Aggravated Assault Firearm",-75.22537178,39.97944916,39.97944916,-75.22537178,"2020","Y"
"311",287260,"15","1",2020-10-03 03:53:00,2020-10-02,23:53:00,23,202015079137,"5000 BLOCK FRANKFORD AVE",400,"Aggravated Assault Firearm",-75.07992131,40.02084236,40.02084236,-75.07992131,"2020","Y"
"312",287262,"35","2",2020-11-06 06:29:00,2020-11-06,01:29:00,1,202035090337,"4900 BLOCK N BROAD ST",400,"Aggravated Assault Firearm",-75.14691529,40.02915325,40.02915325,-75.14691529,"2020","Y"
"313",287270,"18","2",2020-09-07 03:33:00,2020-09-06,23:33:00,23,202018061751,"0 BLOCK S 52ND ST",300,"Robbery Firearm",-75.2249985,39.95944455,39.95944455,-75.2249985,"2020","Y"
"314",287278,"14","1",2020-09-24 23:52:00,2020-09-24,19:52:00,19,202014059159,"400 BLOCK SLOCUM ST",400,"Aggravated Assault Firearm",-75.18122363,40.05792821,40.05792821,-75.18122363,"2020","Y"
"315",287286,"24","2",2020-10-18 22:14:00,2020-10-18,18:14:00,18,202024075044,"1900 BLOCK E SOMERSET ST",400,"Aggravated Assault Firearm",-75.12112376,39.98982134,39.98982134,-75.12112376,"2020","Y"
"316",287684,"39","1",2020-10-26 05:20:00,2020-10-26,01:20:00,1,202039064541,"5100 BLOCK WISSAHICKON AVE",400,"Aggravated Assault Firearm",-75.17496542,40.01990098,40.01990098,-75.17496542,"2020","Y"
"317",293152,"25","1",2020-12-09 01:15:00,2020-12-08,20:15:00,20,202025078700,"1000 BLOCK W HUNTING PARK AVE",300,"Robbery Firearm",-75.14202288,40.01617236,40.01617235,-75.14202288,"2020","Y"
"318",293422,"03","3",2020-09-03 21:29:00,2020-09-03,17:29:00,17,202003046913,"2100 BLOCK S 11TH ST",300,"Robbery Firearm",-75.16444348,39.92371112,39.92371112,-75.16444348,"2020","Y"
"319",293869,"02","3",2020-12-04 00:51:00,2020-12-03,19:51:00,19,202002055867,"2100 BLOCK GLENDALE AVE",300,"Robbery Firearm",-75.05658074,40.05532631,40.05532631,-75.05658074,"2020","Y"
"320",293878,"02","3",2020-12-13 06:43:00,2020-12-13,01:43:00,1,202002057252,"800 BLOCK COTTMAN AVE",400,"Aggravated Assault Firearm",-75.08657054,40.06309915,40.06309915,-75.08657054,"2020","Y"
"321",293881,"35","3",2020-11-04 20:23:00,2020-11-04,15:23:00,15,202035089921,"1500 BLOCK 68TH AVE",400,"Aggravated Assault Firearm",-75.14341845,40.05703452,40.05703452,-75.14341845,"2020","Y"
"322",288966,"25","4",2020-10-19 15:31:00,2020-10-19,11:31:00,11,202025068246,"3500 BLOCK N 11TH ST",400,"Aggravated Assault Firearm",-75.14624905,40.00698042,40.00698042,-75.14624905,"2020","Y"
"323",288967,"25","3",2020-12-17 04:03:00,2020-12-16,23:03:00,23,202025080558,"100 BLOCK W CLEARFIELD",300,"Robbery Firearm",-75.13205864,39.99728,39.99728,-75.13205864,"2020","Y"
"324",288968,"35","2",2020-12-02 12:28:00,2020-12-02,07:28:00,7,202035096777,"5600 BLOCK N BROAD ST",300,"Robbery Firearm",-75.14475191,40.03908202,40.03908202,-75.14475191,"2020","Y"
"325",288972,"25","4",2020-11-30 07:18:00,2020-11-30,02:18:00,2,202025076987,"1200 BLOCK W WESTMORELAND ST",300,"Robbery Firearm",-75.15037242,40.00291226,40.00291226,-75.15037242,"2020","Y"
"326",288974,"24","1",2020-08-03 01:17:00,2020-08-02,21:17:00,21,202024055296,"1800 BLOCK E TIOGA ST",300,"Robbery Firearm",-75.10644553,40.00033176,40.00033176,-75.10644553,"2020","Y"
"327",289392,"18","1",2020-11-21 01:20:00,2020-11-20,20:20:00,20,202018077786,"S 58TH ST  /  PINE ST",300,"Robbery Firearm",-75.23816845,39.95502097,39.95502097,-75.23816844,"2020","Y"
"328",289398,"15","2",2020-09-26 03:36:00,2020-09-25,23:36:00,23,202015076881,"1300 BLOCK SANGER ST",400,"Aggravated Assault Firearm",-75.0800625,40.02752709,40.02752709,-75.0800625,"2020","Y"
"329",289399,"15","3",2020-11-23 21:27:00,2020-11-23,16:27:00,16,202015092845,"PRINCETON AV  /  SACKETT ST",300,"Robbery Firearm",-75.0501845,40.03758094,40.03758094,-75.0501845,"2020","Y"
"330",289410,"22","2",2020-09-04 02:07:00,2020-09-03,22:07:00,22,202022060354,"3100 BLOCK WESTMONT ST",400,"Aggravated Assault Firearm",-75.18526103,39.98902257,39.98902257,-75.18526103,"2020","Y"
"331",289417,"24","1",2020-09-02 18:04:00,2020-09-02,14:04:00,14,202024063041,"4300 BLOCK M ST",400,"Aggravated Assault Firearm",-75.0996941,40.01209242,40.01209242,-75.0996941,"2020","Y"
"332",289844,"18","2",2020-10-31 05:08:00,2020-10-31,01:08:00,1,202018074698,"5300 BLOCK PINE ST",400,"Aggravated Assault Firearm",-75.23000144,39.95400554,39.95400554,-75.23000144,"2020","Y"
"333",289850,"26","3",2020-10-10 02:19:00,2020-10-09,22:19:00,22,202026038014,"1400 BLOCK FRANKFORD AVE",300,"Robbery Firearm",-75.13441011,39.97170096,39.97170096,-75.13441011,"2020","Y"
"334",290273,"35","1",2020-12-31 23:02:00,2020-12-31,18:02:00,18,202035104517,"100 BLOCK E GODFREY AVE",300,"Robbery Firearm",-75.11354717,40.04272043,40.04272043,-75.11354717,"2020","Y"
"335",290289,"17","3",2020-11-09 02:26:00,2020-11-08,21:26:00,21,202017031188,"2300 BLOCK TASKER ST",400,"Aggravated Assault Firearm",-75.1830891,39.93238587,39.93238587,-75.1830891,"2020","Y"
"336",291161,"35","3",2020-09-19 00:19:00,2020-09-18,20:19:00,20,202035076826,"E WISTER ST  /  W GRANGE AV",400,"Aggravated Assault Firearm",-75.15828828,40.04335086,40.04335086,-75.15828828,"2020","Y"
"337",291164,"09","3",2020-10-22 05:43:00,2020-10-22,01:43:00,1,202009035076,"900 BLOCK POPLAR DR",300,"Robbery Firearm",-75.18699187,39.97362385,39.97362385,-75.18699187,"2020","Y"
"338",291175,"24","3",2020-10-15 13:06:00,2020-10-15,09:06:00,9,202024074209,"2100 BLOCK E TIOGA ST",300,"Robbery Firearm",-75.10267593,39.99601737,39.99601737,-75.10267593,"2020","Y"
"339",291623,"15","3",2020-11-05 07:06:00,2020-11-05,02:06:00,2,202015088109,"4700 BLOCK LORING ST",400,"Aggravated Assault Firearm",-75.03068101,40.03034738,40.03034738,-75.03068101,"2020","Y"
"340",291628,"02","1",2020-10-27 03:23:00,2020-10-26,23:23:00,23,202002050037,"6600 BLOCK SOUDER ST",300,"Robbery Firearm",-75.07181973,40.04013379,40.04013379,-75.07181973,"2020","Y"
"341",292059,"17","2",2020-11-10 16:15:00,2020-11-10,11:15:00,11,202017031312,"1600 BLOCK S 29TH ST",400,"Aggravated Assault Firearm",-75.19255449,39.93233876,39.93233876,-75.19255449,"2020","Y"
"342",292061,"18","2",2020-11-10 04:08:00,2020-11-09,23:08:00,23,202018076033,"S 50TH ST  /  IRVING ST",300,"Robbery Firearm",-75.22192538,39.95473232,39.95473232,-75.22192538,"2020","Y"
"343",292068,"26","3",2020-12-23 04:57:00,2020-12-22,23:57:00,23,202026046579,"2600 BLOCK CORAL ST",400,"Aggravated Assault Firearm",-75.12472988,39.98581095,39.98581095,-75.12472988,"2020","Y"
"344",292496,"15","2",2020-09-22 05:52:00,2020-09-22,01:52:00,1,202015075602,"5400 BLOCK RUTLAND ST",300,"Robbery Firearm",-75.08336256,40.03097886,40.03097886,-75.08336256,"2020","Y"
"345",292505,"26","2",2020-09-11 00:55:00,2020-09-10,20:55:00,20,202026033863,"1500 BLOCK N 9TH ST",400,"Aggravated Assault Firearm",-75.14973755,39.97619128,39.97619128,-75.14973755,"2020","Y"
"346",292506,"18","2",2020-04-08 04:43:00,2020-04-08,00:43:00,0,202018027890,"500 BLOCK S 54TH ST",400,"Aggravated Assault Firearm",-75.2306381,39.95093177,39.95093177,-75.2306381,"2020","Y"
"347",287290,"15","1",2020-09-30 13:44:00,2020-09-30,09:44:00,9,202015078208,"5000 BLOCK RUTLAND ST",300,"Robbery Firearm",-75.0894531,40.02508921,40.02508921,-75.0894531,"2020","Y"
"348",287309,"24","1",2020-11-04 21:09:00,2020-11-04,16:09:00,16,202024079631,"2000 BLOCK E TIOGA ST",400,"Aggravated Assault Firearm",-75.10307408,39.99645022,39.99645022,-75.10307409,"2020","Y"
"349",293425,"39","1",2020-12-28 05:11:00,2020-12-28,00:11:00,0,202039075869,"3200 BLOCK MC MICHAEL ST",300,"Robbery Firearm",-75.17724125,40.01239655,40.01239655,-75.17724125,"2020","Y"
"350",294012,"25","3",2020-11-04 18:04:00,2020-11-04,13:04:00,13,202025071909,"3300 BLOCK ELLA ST",400,"Aggravated Assault Firearm",-75.12635271,39.9998055,39.9998055,-75.12635271,"2020","Y"
"351",294020,"39","3",2020-09-08 05:00:00,2020-09-08,01:00:00,1,202039054493,"2900 BLOCK N 27TH ST",400,"Aggravated Assault Firearm",-75.17487017,39.99972049,39.99972049,-75.17487017,"2020","Y"
"352",288982,"15","3",2020-05-29 05:36:00,2020-05-29,01:36:00,1,202015043339,"7900 BLOCK FRANKFORD AVE",300,"Robbery Firearm",-75.02998251,40.04074514,40.04074514,-75.02998251,"2020","Y"
"353",288990,"12","2",2020-12-13 01:23:00,2020-12-12,20:23:00,20,202012087311,"6600 BLOCK UPLAND ST",400,"Aggravated Assault Firearm",-75.23753734,39.92635482,39.92635482,-75.23753734,"2020","Y"
"354",289000,"39","2",2020-12-03 06:38:00,2020-12-03,01:38:00,1,202039071541,"4100 BLOCK N BROAD ST",400,"Aggravated Assault Firearm",-75.14972896,40.01622409,40.01622409,-75.14972896,"2020","Y"
"355",289001,"12","2",2020-09-04 00:39:00,2020-09-03,20:39:00,20,202012065165,"6000 BLOCK CHESTER AVE",400,"Aggravated Assault Firearm",-75.23256906,39.93292192,39.93292192,-75.23256906,"2020","Y"
"356",289437,"25","2",2020-12-13 04:57:00,2020-12-12,23:57:00,23,202025079714,"400 BLOCK W ROOSEVELT BLVD",300,"Robbery Firearm",-75.1313426,40.02395613,40.02395613,-75.1313426,"2020","Y"
"357",289439,"39","3",2020-09-24 21:06:00,2020-09-24,17:06:00,17,202039058020,"2700 BLOCK N RINGGOLD ST",400,"Aggravated Assault Firearm",-75.17132835,39.99612322,39.99612322,-75.17132835,"2020","Y"
"358",289440,"12","4",2020-11-11 15:24:00,2020-11-11,10:24:00,10,202012080911,"900 BLOCK S PAXON ST",400,"Aggravated Assault Firearm",-75.2236957,39.94511106,39.94511105,-75.2236957,"2020","Y"
"359",289876,"22","1",2020-09-05 20:49:00,2020-09-05,16:49:00,16,202022060778,"2400 BLOCK N 13TH ST",400,"Aggravated Assault Firearm",-75.15339256,39.98909523,39.98909523,-75.15339256,"2020","Y"
"360",291188,"25","3",2020-09-29 18:31:00,2020-09-29,14:31:00,14,202025063567,"3400 BLOCK B ST",400,"Aggravated Assault Firearm",-75.12441366,40.00264382,40.00264382,-75.12441366,"2020","Y"
"361",291192,"12","3",2020-09-08 05:32:00,2020-09-08,01:32:00,1,202012066197,"2500 BLOCK BONNAFFON ST",300,"Robbery Firearm",-75.23339732,39.92004272,39.92004272,-75.23339732,"2020","Y"
"362",291212,"02","2",2020-10-22 03:05:00,2020-10-21,23:05:00,23,202002049239,"5500 BLOCK HILL CREEK CT",400,"Aggravated Assault Firearm",-75.10859255,40.03575935,40.03575935,-75.10859255,"2020","Y"
"363",291654,"18","3",2020-09-14 05:35:00,2020-09-14,01:35:00,1,202018063514,"4400 BLOCK OSAGE AVE",300,"Robbery Firearm",-75.21255938,39.9510636,39.9510636,-75.21255938,"2020","Y"
"364",292073,"25","1",2020-07-14 03:37:00,2020-07-13,23:37:00,23,202025045901,"4200 BLOCK N BROAD ST",400,"Aggravated Assault Firearm",-75.14839789,40.01679992,40.01679992,-75.14839789,"2020","Y"
"365",292075,"22","1",2020-12-08 08:33:00,2020-12-08,03:33:00,3,202022080662,"N 18TH ST  /  W CUMBERLAND ST",400,"Aggravated Assault Firearm",-75.16161618,39.99169502,39.99169502,-75.16161618,"2020","Y"
"366",292093,"15","2",2020-11-28 20:53:00,2020-11-28,15:53:00,15,202015094077,"1800 BLOCK SANGER ST",400,"Aggravated Assault Firearm",-75.07025704,40.02067792,40.02067792,-75.07025704,"2020","Y"
"367",292536,"18","1",2020-10-21 07:00:00,2020-10-21,03:00:00,3,202018072187,"6100 BLOCK LOCUST ST",300,"Robbery Firearm",-75.24361043,39.95802915,39.95802915,-75.24361043,"2020","Y"
"368",292980,"12","3",2020-11-21 04:58:00,2020-11-20,23:58:00,23,202012082816,"5800 BLOCK KINGSESSING AVE",300,"Robbery Firearm",-75.22725409,39.93467062,39.93467062,-75.22725409,"2020","Y"
"369",287316,"24","2",2020-11-07 05:33:00,2020-11-07,00:33:00,0,202024080191,"2700 BLOCK JASPER ST",400,"Aggravated Assault Firearm",-75.12299271,39.98956721,39.98956721,-75.12299271,"2020","Y"
"370",287318,"15","3",2020-12-05 08:52:00,2020-12-05,03:52:00,3,202015095617,"3200 BLOCK FRIENDSHIP ST",300,"Robbery Firearm",-75.04797549,40.03729273,40.03729273,-75.04797549,"2020","Y"
"371",287338,"24","1",2020-09-26 12:52:00,2020-09-26,08:52:00,8,202024069342,"3400 BLOCK HELEN ST",400,"Aggravated Assault Firearm",-75.10477367,39.99837353,39.99837353,-75.10477367,"2020","Y"
"372",293460,"12","4",2020-09-25 22:56:00,2020-09-25,18:56:00,18,202012070441,"S 52ND ST  /  WARRINGTON AV",400,"Aggravated Assault Firearm",-75.2234586,39.94331992,39.94331992,-75.2234586,"2020","Y"
"373",294040,"14","1",2020-12-02 23:50:00,2020-12-02,18:50:00,18,202014072835,"6600 BLOCK CORNELIUS ST",300,"Robbery Firearm",-75.16014291,40.05740794,40.05740794,-75.16014291,"2020","Y"
"374",294056,"24","1",2020-11-12 00:33:00,2020-11-11,19:33:00,19,202024081294,"1800 BLOCK E ATLANTIC ST",400,"Aggravated Assault Firearm",-75.10505179,40.00046039,40.00046039,-75.10505179,"2020","Y"
"375",289014,"24","2",2020-11-14 21:11:00,2020-11-14,16:11:00,16,202024081908,"2800 BLOCK JASPER ST",400,"Aggravated Assault Firearm",-75.11925712,39.9914987,39.9914987,-75.11925712,"2020","Y"
"376",289027,"24","1",2020-03-08 17:41:00,2020-03-08,13:41:00,13,202024018638,"1500 BLOCK E ERIE AVE",300,"Robbery Firearm",-75.09905176,40.00577102,40.00577102,-75.09905176,"2020","Y"
"377",289446,"24","3",2020-09-20 05:22:00,2020-09-20,01:22:00,1,202024067765,"3400 BLOCK COLLINS ST",400,"Aggravated Assault Firearm",-75.10460438,39.9943973,39.99439729,-75.10460438,"2020","Y"
"378",289452,"19","2",2020-09-12 03:37:00,2020-09-11,23:37:00,23,202019057260,"5700 BLOCK FILBERT ST",400,"Aggravated Assault Firearm",-75.2346475,39.96228971,39.96228971,-75.2346475,"2020","Y"
"379",289467,"22","4",2020-09-14 14:00:00,2020-09-14,10:00:00,10,202022062978,"1700 BLOCK N 22ND ST",400,"Aggravated Assault Firearm",-75.17089446,39.98038148,39.98038148,-75.17089446,"2020","Y"
"380",289468,"14","2",2020-12-28 22:39:00,2020-12-28,17:39:00,17,202014077234,"400 BLOCK E WALNUT LN",400,"Aggravated Assault Firearm",-75.17251652,40.04694199,40.04694199,-75.17251652,"2020","Y"
"381",289895,"19","2",2020-12-12 19:24:00,2020-12-12,14:24:00,14,202019075628,"5600 BLOCK WYALUSING AVE",400,"Aggravated Assault Firearm",-75.23223125,39.96883814,39.96883814,-75.23223125,"2020","Y"
"382",289900,"24","2",2020-11-12 23:15:00,2020-11-12,18:15:00,18,202024081489,"E ST  /  E CLEARFIELD ST",400,"Aggravated Assault Firearm",-75.11950879,39.99642629,39.99642629,-75.11950879,"2020","Y"
"383",289904,"12","3",2020-11-05 23:28:00,2020-11-05,18:28:00,18,202012079883,"6500 BLOCK ELMWOOD AVE",400,"Aggravated Assault Firearm",-75.23033039,39.92221059,39.92221059,-75.23033039,"2020","Y"
"384",290331,"01","1",2020-10-25 09:27:00,2020-10-25,05:27:00,5,202001026873,"2100 BLOCK SNYDER AVE",300,"Robbery Firearm",-75.18170081,39.9259332,39.9259332,-75.18170081,"2020","Y"
"385",290333,"24","1",2020-12-14 02:45:00,2020-12-13,21:45:00,21,202024088093,"3500 BLOCK FRANKFORD AVE",300,"Robbery Firearm",-75.10240598,39.9974272,39.9974272,-75.10240598,"2020","Y"
"386",290354,"24","1",2020-09-16 23:09:00,2020-09-16,19:09:00,19,202024066887,"3400 BLOCK KENSINGTON AVE",400,"Aggravated Assault Firearm",-75.10644553,40.00033176,40.00033176,-75.10644553,"2020","Y"
"387",291217,"08","2",2020-11-08 23:22:00,2020-11-08,18:22:00,18,202008034052,"9100 BLOCK ACADEMY RD",400,"Aggravated Assault Firearm",-75.01124436,40.05667689,40.05667689,-75.01124436,"2020","Y"
"388",291659,"24","1",2020-09-15 08:08:00,2020-09-15,04:08:00,4,202024066500,"3500 BLOCK I ST",300,"Robbery Firearm",-75.11033027,40.0008436,40.0008436,-75.11033027,"2020","Y"
"389",291661,"08","1",2020-12-02 15:42:00,2020-12-02,10:42:00,10,202008036738,"8200 BLOCK E ROOSEVELT BLVD",400,"Aggravated Assault Firearm",-75.04414993,40.0588876,40.0588876,-75.04414993,"2020","Y"
"390",291663,"18","2",2020-10-22 21:11:00,2020-10-22,17:11:00,17,202018072585,"SANSOM ST  /  S 51ST ST",300,"Robbery Firearm",-75.22338006,39.95747963,39.95747963,-75.22338006,"2020","Y"
"391",291674,"12","2",2020-09-23 01:21:00,2020-09-22,21:21:00,21,202012069817,"1600 BLOCK COBBS CREEK PKWY",300,"Robbery Firearm",-75.23378627,39.93804389,39.93804389,-75.23378627,"2020","Y"
"392",292108,"14","1",2020-09-28 18:35:00,2020-09-28,14:35:00,14,202014059971,"7200 BLOCK N 21ST ST",400,"Aggravated Assault Firearm",-75.15225684,40.06430701,40.064307,-75.15225684,"2020","Y"
"393",292558,"19","2",2020-10-31 13:31:00,2020-10-31,09:31:00,9,202019067893,"5100 BLOCK LANCASTER AVE",400,"Aggravated Assault Firearm",-75.22606502,39.97689417,39.97689417,-75.22606502,"2020","Y"
"394",292568,"12","4",2020-10-13 16:20:00,2020-10-13,12:20:00,12,202012074738,"1100 BLOCK S 54TH ST",400,"Aggravated Assault Firearm",-75.22728486,39.94337259,39.94337259,-75.22728486,"2020","Y"
"395",287357,"15","3",2020-11-16 02:37:00,2020-11-15,21:37:00,21,202015090884,"4200 BLOCK MERIDIAN ST",400,"Aggravated Assault Firearm",-75.0310411,40.03731478,40.03731478,-75.0310411,"2020","Y"
"396",287360,"14","1",2020-12-06 01:07:00,2020-12-05,20:07:00,20,202014073393,"700 BLOCK VERNON RD",400,"Aggravated Assault Firearm",-75.17625482,40.06384967,40.06384967,-75.17625482,"2020","Y"
"397",287781,"22","2",2020-09-07 18:12:00,2020-09-07,14:12:00,14,202022061240,"2400 BLOCK N 23RD ST",400,"Aggravated Assault Firearm",-75.17002431,39.99201505,39.99201505,-75.17002431,"2020","Y"
"398",293490,"01","1",2020-10-18 14:58:00,2020-10-18,10:58:00,10,202001026271,"2300 BLOCK SNYDER AVE",300,"Robbery Firearm",-75.18439665,39.92628521,39.92628521,-75.18439665,"2020","Y"
"399",293500,"15","3",2020-10-08 00:35:00,2020-10-07,20:35:00,20,202015080454,"3300 BLOCK SAINT VINCENT ST",300,"Robbery Firearm",-75.04740824,40.03790152,40.03790152,-75.04740824,"2020","Y"
"400",293929,"26","1",2020-10-11 16:01:00,2020-10-11,12:01:00,12,202026038230,"N FRONT ST  /  W DAUPHIN ST",300,"Robbery Firearm",-75.13221031,39.98475067,39.98475067,-75.13221031,"2020","Y"
"401",289053,"22","1",2020-09-25 03:50:00,2020-09-24,23:50:00,23,202022065291,"2100 BLOCK W SUSQUEHANNA",400,"Aggravated Assault Firearm",-75.1692363,39.98796818,39.98796818,-75.1692363,"2020","Y"
"402",289475,"14","1",2020-11-08 02:43:00,2020-11-07,21:43:00,21,202014068434,"5900 BLOCK DEVON PL",300,"Robbery Firearm",-75.16714,40.05019218,40.05019218,-75.16714,"2020","Y"
"403",289492,"15","1",2020-12-24 05:25:00,2020-12-24,00:25:00,0,202015100070,"4900 BLOCK FRANKFORD AVE",400,"Aggravated Assault Firearm",-75.08042779,40.02031209,40.02031209,-75.08042779,"2020","Y"
"404",289930,"18","2",2020-09-07 05:30:00,2020-09-07,01:30:00,1,202018061764,"600 BLOCK S CONESTOGA ST",400,"Aggravated Assault Firearm",-75.232053,39.95110594,39.95110594,-75.232053,"2020","Y"
"405",289931,"18","2",2020-10-17 20:51:00,2020-10-17,16:51:00,16,202018071404,"0 BLOCK S CONESTOGA ST",400,"Aggravated Assault Firearm",-75.2297875,39.96060844,39.96060844,-75.2297875,"2020","Y"
"406",289939,"17","3",2020-10-22 00:38:00,2020-10-21,20:38:00,20,202017029572,"1200 BLOCK POINT BREEZE AVE",400,"Aggravated Assault Firearm",-75.17672965,39.93729231,39.93729231,-75.17672965,"2020","Y"
"407",291243,"24","1",2020-12-20 22:15:00,2020-12-20,17:15:00,17,202024089434,"KENSINGTON AV  /  E TIOGA ST",300,"Robbery Firearm",-75.10644553,40.00033176,40.00033176,-75.10644553,"2020","Y"
"408",291249,"25","4",2020-10-08 09:25:00,2020-10-08,05:25:00,5,202025065685,"3400 BLOCK N BROAD ST",400,"Aggravated Assault Firearm",-75.15097154,40.0045465,40.0045465,-75.15097154,"2020","Y"
"409",291251,"24","2",2020-11-10 08:59:00,2020-11-10,03:59:00,3,202024080874,"2100 BLOCK E CAMBRIA ST",400,"Aggravated Assault Firearm",-75.11675286,39.98866117,39.98866117,-75.11675286,"2020","Y"
"410",291253,"19","2",2020-10-30 01:59:00,2020-10-29,21:59:00,21,202019067653,"5800 BLOCK VINE ST",400,"Aggravated Assault Firearm",-75.23716325,39.96626007,39.96626007,-75.23716325,"2020","Y"
"411",291268,"15","2",2020-10-26 19:17:00,2020-10-26,15:17:00,15,202015085771,"6400 BLOCK SACKETT ST",300,"Robbery Firearm",-75.05841009,40.0288586,40.0288586,-75.05841009,"2020","Y"
"412",291269,"35","2",2020-10-08 04:08:00,2020-10-08,00:08:00,0,202035082423,"5200 BLOCK N 5TH ST",400,"Aggravated Assault Firearm",-75.13150993,40.03187635,40.03187635,-75.13150993,"2020","Y"
"413",291689,"19","3",2020-12-18 01:14:00,2020-12-17,20:14:00,20,202019076584,"5600 BLOCK LANCASTER AVE",300,"Robbery Firearm",-75.23404953,39.98041111,39.98041111,-75.23404953,"2020","Y"
"414",291696,"25","2",2020-11-27 10:51:00,2020-11-27,05:51:00,5,202025076416,"4300 BLOCK N FRONT ST",300,"Robbery Firearm",-75.12599001,40.01387207,40.01387207,-75.12599001,"2020","Y"
"415",291706,"24","3",2020-11-02 00:22:00,2020-11-01,19:22:00,19,202024079041,"3200 BLOCK N DELAWARE AVE",300,"Robbery Firearm",-75.09767258,39.97869337,39.97869337,-75.09767258,"2020","Y"
"416",291711,"39","2",2020-12-26 21:00:00,2020-12-26,16:00:00,16,202039075665,"1400 BLOCK W HUNTING PARK AVE",300,"Robbery Firearm",-75.15121033,40.01712313,40.01712313,-75.15121033,"2020","Y"
"417",292134,"03","1",2020-09-20 09:34:00,2020-09-20,05:34:00,5,202003049690,"1300 BLOCK SOUTH ST",300,"Robbery Firearm",-75.16335728,39.94338805,39.94338805,-75.16335728,"2020","Y"
"418",292137,"26","2",2020-09-10 23:55:00,2020-09-10,19:55:00,19,202026033862,"1500 BLOCK N 9TH ST",400,"Aggravated Assault Firearm",-75.14973755,39.97619128,39.97619128,-75.14973755,"2020","Y"
"419",292595,"19","2",2020-12-09 22:09:00,2020-12-09,17:09:00,17,202019075014,"100 BLOCK N 54TH ST",300,"Robbery Firearm",-75.2283213,39.96204272,39.96204272,-75.2283213,"2020","Y"
"420",287370,"24","1",2020-11-27 23:33:00,2020-11-27,18:33:00,18,202024084656,"1900 BLOCK E MADISON ST",400,"Aggravated Assault Firearm",-75.11036682,39.99474151,39.99474151,-75.11036682,"2020","Y"
"421",287379,"03","1",2020-10-28 06:50:00,2020-10-28,02:50:00,2,202003056306,"700 BLOCK S CHRISTOPHER COLUMBUS BLVD",400,"Aggravated Assault Firearm",-75.14237738,39.93860755,39.93860755,-75.14237738,"2020","Y"
"422",287380,"19","2",2020-08-24 03:11:00,2020-08-23,23:11:00,23,202019053332,"200 BLOCK APPIAN WAY",400,"Aggravated Assault Firearm",-75.23113157,39.96482689,39.96482689,-75.23113157,"2020","Y"
"423",287396,"15","2",2020-09-12 04:18:00,2020-09-12,00:18:00,0,202015072728,"6000 BLOCK CHARLES ST",400,"Aggravated Assault Firearm",-75.06379425,40.02464687,40.02464687,-75.06379425,"2020","Y"
"424",288251,"24","1",2020-12-23 21:00:00,2020-12-23,16:00:00,16,202024090144,"2400 BLOCK CASTOR AVE",400,"Aggravated Assault Firearm",-75.09452543,39.99461241,39.99461241,-75.09452543,"2020","Y"
"425",293524,"02","1",2020-12-09 00:44:00,2020-12-08,19:44:00,19,202002056595,"5700 BLOCK OXFORD AVE",300,"Robbery Firearm",-75.08531632,40.03353077,40.03353077,-75.08531632,"2020","Y"
"426",293958,"35","1",2020-10-27 02:46:00,2020-10-26,22:46:00,22,202035087698,"7000 BLOCK N BROAD ST",300,"Robbery Firearm",-75.14020588,40.05973876,40.05973876,-75.14020588,"2020","Y"
"427",293962,"22","4",2020-09-02 05:06:00,2020-09-02,01:06:00,1,202022059929,"3100 BLOCK W MONTGOMERY AVE",400,"Aggravated Assault Firearm",-75.18479717,39.98371519,39.98371519,-75.18479717,"2020","Y"
"428",293967,"18","3",2020-09-12 06:49:00,2020-09-12,02:49:00,2,202018063077,"4800 BLOCK WOODLAND AVE",400,"Aggravated Assault Firearm",-75.21225594,39.94125901,39.94125901,-75.21225594,"2020","Y"
"429",293976,"39","1",2020-09-22 03:17:00,2020-09-21,23:17:00,23,202039057435,"3600 BLOCK STANTON ST",300,"Robbery Firearm",-75.19369312,40.01174571,40.01174571,-75.19369312,"2020","Y"
"430",289062,"24","2",2020-11-05 22:49:00,2020-11-05,17:49:00,17,202024079842,"2700 BLOCK KENSINGTON AVE",400,"Aggravated Assault Firearm",-75.12549354,39.98984598,39.98984598,-75.12549354,"2020","Y"
"431",289064,"22","3",2020-10-02 14:19:00,2020-10-02,10:19:00,10,202022066875,"N 16TH ST  /  JEFFERSON ST",400,"Aggravated Assault Firearm",-75.16175303,39.97627201,39.97627201,-75.16175303,"2020","Y"
"432",289069,"15","1",2020-10-09 02:02:00,2020-10-08,22:02:00,22,202015080749,"4900 BLOCK FRANKFORD AVE",400,"Aggravated Assault Firearm",-75.08092635,40.01976492,40.01976492,-75.08092635,"2020","Y"
"433",289073,"39","3",2020-04-04 20:58:00,2020-04-04,16:58:00,16,202039023813,"2500 BLOCK W CLEARFIELD ST",400,"Aggravated Assault Firearm",-75.17103711,40.00231157,40.00231157,-75.17103711,"2020","Y"
"434",289088,"18","1",2020-11-03 23:56:00,2020-11-03,18:56:00,18,202018075171,"5900 BLOCK SANSOM ST",400,"Aggravated Assault Firearm",-75.24049623,39.95959861,39.95959861,-75.24049623,"2020","Y"
"435",289506,"17","1",2020-12-15 04:12:00,2020-12-14,23:12:00,23,202017034601,"1000 BLOCK S 17TH ST",300,"Robbery Firearm",-75.17134353,39.93967246,39.93967246,-75.17134353,"2020","Y"
"436",289514,"18","2",2020-12-14 05:56:00,2020-12-14,00:56:00,0,202018081826,"100 BLOCK S PEACH ST",300,"Robbery Firearm",-75.22780113,39.9588078,39.9588078,-75.22780113,"2020","Y"
"437",289947,"24","1",2020-09-08 22:23:00,2020-09-08,18:23:00,18,202024064703,"3300 BLOCK POTTER ST",400,"Aggravated Assault Firearm",-75.10961165,39.99917349,39.99917349,-75.10961165,"2020","Y"
"438",289957,"19","3",2020-12-14 08:25:00,2020-12-14,03:25:00,3,202019075907,"4800 BLOCK LANCASTER AVE",300,"Robbery Firearm",-75.21776987,39.97263608,39.97263608,-75.21776987,"2020","Y"
"439",289963,"24","1",2020-09-11 04:54:00,2020-09-11,00:54:00,0,202024065371,"3400 BLOCK HELEN ST",400,"Aggravated Assault Firearm",-75.10477367,39.99837353,39.99837353,-75.10477367,"2020","Y"
"440",290828,"25","4",2020-09-12 06:52:00,2020-09-12,02:52:00,2,202025059381,"800 BLOCK W SEDGLEY AVE",400,"Aggravated Assault Firearm",-75.14412543,40.0021673,40.0021673,-75.14412543,"2020","Y"
"441",291271,"14","4",2020-12-20 18:55:00,2020-12-20,13:55:00,13,202014075911,"1600 BLOCK WADSWORTH AVE",300,"Robbery Firearm",-75.17260199,40.08047778,40.08047778,-75.17260199,"2020","Y"
"442",291280,"06","2",2020-10-24 19:24:00,2020-10-24,15:24:00,15,202006042325,"200 BLOCK N 11TH ST",400,"Aggravated Assault Firearm",-75.15733473,39.95620886,39.95620886,-75.15733473,"2020","Y"
"443",291294,"12","2",2020-12-26 04:31:00,2020-12-25,23:31:00,23,202012089749,"7200 BLOCK WOODLAND AVE",400,"Aggravated Assault Firearm",-75.24631047,39.91718536,39.91718536,-75.24631047,"2020","Y"
"444",291722,"15","1",2020-10-28 06:16:00,2020-10-28,02:16:00,2,202015086222,"4600 BLOCK N PENN ST",400,"Aggravated Assault Firearm",-75.08554598,40.0175128,40.0175128,-75.08554598,"2020","Y"
"445",291735,"14","3",2020-11-01 09:30:00,2020-11-01,04:30:00,4,202014067114,"400 BLOCK GLEN ECHO RD",400,"Aggravated Assault Firearm",-75.19491648,40.05235578,40.05235578,-75.19491648,"2020","Y"
"446",292162,"18","2",2020-12-04 07:08:00,2020-12-04,02:08:00,2,202018079923,"S 50TH ST  /  HAZEL AV",300,"Robbery Firearm",-75.22275361,39.95076373,39.95076373,-75.22275361,"2020","Y"
"447",292598,"39","2",2020-09-05 21:01:00,2020-09-05,17:01:00,17,202039053989,"1600 BLOCK DOUNTON ST",400,"Aggravated Assault Firearm",-75.1547905,40.01765881,40.01765881,-75.1547905,"2020","Y"
"448",292606,"26","1",2020-10-28 00:16:00,2020-10-27,20:16:00,20,202026040386,"800 BLOCK W FIRTH ST",300,"Robbery Firearm",-75.14665523,39.99026654,39.99026654,-75.14665523,"2020","Y"
"449",292611,"01","2",2020-10-28 00:02:00,2020-10-27,20:02:00,20,202001027093,"2300 BLOCK OREGON AVE",300,"Robbery Firearm",-75.18735623,39.91901491,39.9190149,-75.18735623,"2020","Y"
"450",292619,"22","2",2020-05-07 04:29:00,2020-05-07,00:29:00,0,202022032166,"2400 BLOCK EDGLEY ST",400,"Aggravated Assault Firearm",-75.17264495,39.98744509,39.98744509,-75.17264495,"2020","Y"
"451",293045,"24","2",2020-10-08 23:25:00,2020-10-08,19:25:00,19,202024072550,"3000 BLOCK POTTER ST",400,"Aggravated Assault Firearm",-75.11661016,39.99528719,39.99528719,-75.11661016,"2020","Y"
"452",287402,"24","2",2020-11-06 19:47:00,2020-11-06,14:47:00,14,202024080028,"3000 BLOCK E ST",300,"Robbery Firearm",-75.11999139,39.99417773,39.99417773,-75.11999139,"2020","Y"
"453",287820,"02","1",2020-09-20 22:10:00,2020-09-20,18:10:00,18,202002043731,"1500 BLOCK TYSON AVE",300,"Robbery Firearm",-75.06956073,40.04642956,40.04642956,-75.06956073,"2020","Y"
"454",288269,"17","3",2020-12-04 01:02:00,2020-12-03,20:02:00,20,202017033515,"1700 BLOCK PIERCE ST",300,"Robbery Firearm",-75.17364044,39.92909464,39.92909464,-75.17364044,"2020","Y"
"455",293307,"24","1",2020-10-28 05:02:00,2020-10-28,01:02:00,1,202024077700,"3600 BLOCK JASPER ST",400,"Aggravated Assault Firearm",-75.10289348,40.00005968,40.00005967,-75.10289348,"2020","Y"
"456",293557,"16","2",2020-10-23 20:39:00,2020-10-23,16:39:00,16,202016040046,"BELMONT AV  /  PARKSIDE AV",400,"Aggravated Assault Firearm",-75.21799743,39.99423266,39.99423266,-75.21799743,"2020","Y"
"457",293988,"35","2",2020-10-05 04:49:00,2020-10-05,00:49:00,0,202035081455,"N 5TH ST  /  LINDLEY AV",300,"Robbery Firearm",-75.13217726,40.0287813,40.0287813,-75.13217726,"2020","Y"
"458",289090,"15","3",2020-11-16 03:39:00,2020-11-15,22:39:00,22,202015090888,"4200 BLOCK MERIDIAN ST",400,"Aggravated Assault Firearm",-75.0310411,40.03731478,40.03731478,-75.0310411,"2020","Y"
"459",289113,"26","2",2020-11-05 17:46:00,2020-11-05,12:46:00,12,202026041542,"1700 BLOCK N FRONT ST",300,"Robbery Firearm",-75.1343357,39.97500224,39.97500224,-75.1343357,"2020","Y"
"460",289539,"35","3",2020-10-10 00:53:00,2020-10-09,20:53:00,20,202035082949,"5900 BLOCK N 16TH ST",400,"Aggravated Assault Firearm",-75.14695233,40.04402436,40.04402435,-75.14695233,"2020","Y"
"461",289541,"12","4",2020-11-14 13:39:00,2020-11-14,08:39:00,8,202012081499,"1600 BLOCK S ITHAN ST",400,"Aggravated Assault Firearm",-75.22618791,39.9374014,39.9374014,-75.22618791,"2020","Y"
"462",289550,"12","3",2020-11-20 16:39:00,2020-11-20,11:39:00,11,202012082691,"6200 BLOCK PASCHALL AVE",400,"Aggravated Assault Firearm",-75.22940299,39.92716588,39.92716588,-75.22940299,"2020","Y"
"463",289969,"35","2",2020-11-19 09:01:00,2020-11-19,04:01:00,4,202035093556,"5500 BLOCK N AMERICAN ST",400,"Aggravated Assault Firearm",-75.12653501,40.03593892,40.03593892,-75.12653501,"2020","Y"
"464",289970,"16","2",2020-09-01 16:25:00,2020-09-01,12:25:00,12,202016033131,"3800 BLOCK W GIRARD AVE",400,"Aggravated Assault Firearm",-75.19950768,39.97465596,39.97465596,-75.19950768,"2020","Y"
"465",290438,"14","2",2020-09-22 04:55:00,2020-09-22,00:55:00,0,202014058581,"5500 BLOCK MUSGRAVE ST",300,"Robbery Firearm",-75.16369187,40.04101,40.04101,-75.16369187,"2020","Y"
"466",290877,"25","4",2020-11-01 04:18:00,2020-11-01,00:18:00,0,202025071273,"N BROAD ST  /  W ALLEGHENY AV",400,"Aggravated Assault Firearm",-75.15292829,40.00160202,40.00160202,-75.15292829,"2020","Y"
"467",290880,"39","2",2020-11-04 00:06:00,2020-11-03,19:06:00,19,202039066215,"1900 BLOCK W ALLEGHENY AVE",300,"Robbery Firearm",-75.1624188,40.00283209,40.00283209,-75.1624188,"2020","Y"
"468",291303,"25","1",2020-10-02 04:33:00,2020-10-02,00:33:00,0,202025064275,"3900 BLOCK N DELHI ST",400,"Aggravated Assault Firearm",-75.14313211,40.01137961,40.01137961,-75.14313211,"2020","Y"
"469",291304,"02","2",2020-11-07 16:38:00,2020-11-07,11:38:00,11,202002051808,"6000 BLOCK NEWTOWN AVE",400,"Aggravated Assault Firearm",-75.10531702,40.04938722,40.04938722,-75.10531702,"2020","Y"
"470",291311,"24","2",2020-11-24 00:35:00,2020-11-23,19:35:00,19,202024083840,"3000 BLOCK A ST",400,"Aggravated Assault Firearm",-75.12800018,39.9952184,39.9952184,-75.12800018,"2020","Y"
"471",291749,"14","1",2020-12-17 00:06:00,2020-12-16,19:06:00,19,202014075293,"5800 BLOCK BRUSH RD",400,"Aggravated Assault Firearm",-75.16092107,40.05380059,40.05380059,-75.16092107,"2020","Y"
"472",292184,"35","1",2020-10-14 08:54:00,2020-10-14,04:54:00,4,202035084152,"100 BLOCK W 65TH AVE",300,"Robbery Firearm",-75.12277879,40.04962239,40.04962239,-75.12277878,"2020","Y"
"473",292204,"06","1",2020-11-13 23:39:00,2020-11-13,18:39:00,18,202006044933,"600 BLOCK FAIRMOUNT AVE",400,"Aggravated Assault Firearm",-75.14857958,39.96376707,39.96376707,-75.14857958,"2020","Y"
"474",292205,"14","3",2020-11-04 01:39:00,2020-11-03,20:39:00,20,202014067653,"6500 BLOCK EMLEN ST",300,"Robbery Firearm",-75.18527843,40.04641937,40.04641937,-75.18527843,"2020","Y"
"475",292644,"16","1",2020-11-18 02:09:00,2020-11-17,21:09:00,21,202016042831,"4100 BLOCK MONTGOMERY DR",400,"Aggravated Assault Firearm",-75.20514043,39.98650297,39.98650297,-75.20514043,"2020","Y"
"476",293068,"22","2",2020-10-16 03:51:00,2020-10-15,23:51:00,23,202022070009,"2400 BLOCK W BERKS ST",300,"Robbery Firearm",-75.17344496,39.98380898,39.98380898,-75.17344496,"2020","Y"
"477",293077,"14","3",2020-10-12 22:00:00,2020-10-12,18:00:00,18,202014063072,"6500 BLOCK BERDAN ST",400,"Aggravated Assault Firearm",-75.18500294,40.04773515,40.04773515,-75.18500294,"2020","Y"
"478",287430,"14","4",2020-12-01 00:07:00,2020-11-30,19:07:00,19,202014072478,"STENTON AV  /  E MOUNT AIRY AV",400,"Aggravated Assault Firearm",-75.18175354,40.06891206,40.06891206,-75.18175354,"2020","Y"
"479",287444,"19","3",2020-12-23 20:38:00,2020-12-23,15:38:00,15,202019077655,"2200 BLOCK N 57TH ST",300,"Robbery Firearm",-75.23749123,39.98800566,39.98800565,-75.23749123,"2020","Y"
"480",287451,"18","1",2020-09-14 01:51:00,2020-09-13,21:51:00,21,202018063486,"5800 BLOCK WASHINGTON AVE",400,"Aggravated Assault Firearm",-75.23974913,39.94742042,39.94742042,-75.23974913,"2020","Y"
"481",288301,"26","1",2020-10-04 05:13:00,2020-10-04,01:13:00,1,202026037227,"2100 BLOCK N 9TH ST",300,"Robbery Firearm",-75.14811151,39.98361357,39.98361356,-75.14811151,"2020","Y"
"482",288305,"25","3",2020-10-27 10:13:00,2020-10-27,06:13:00,6,202025070173,"200 BLOCK W LEHIGH AVE",300,"Robbery Firearm",-75.13546814,39.99148856,39.99148856,-75.13546814,"2020","Y"
"483",293340,"05","3",2020-11-06 00:06:00,2020-11-05,19:06:00,19,202005016966,"900 BLOCK GRAKYN LN",400,"Aggravated Assault Firearm",-75.23193059,40.06880259,40.06880259,-75.23193059,"2020","Y"
"484",293563,"26","1",2020-12-18 17:36:00,2020-12-18,12:36:00,12,202026046186,"800 BLOCK W SUSQUEHANNA AVE",400,"Aggravated Assault Firearm",-75.14727664,39.98513329,39.98513329,-75.14727664,"2020","Y"
"485",293570,"15","2",2020-10-04 17:04:00,2020-10-04,13:04:00,13,202015079577,"5800 BLOCK HEGERMAN ST",400,"Aggravated Assault Firearm",-75.06099155,40.01533611,40.01533611,-75.06099155,"2020","Y"
"486",293583,"15","1",2020-10-30 00:11:00,2020-10-29,20:11:00,20,202015086738,"5200 BLOCK FRANKFORD AVE",300,"Robbery Firearm",-75.07816588,40.02237091,40.02237091,-75.07816588,"2020","Y"
"487",293849,"14","3",2020-11-23 05:15:00,2020-11-23,00:15:00,0,202014071185,"200 BLOCK W JOHNSON ST 4",400,"Aggravated Assault Firearm",-75.1855719,40.04263485,40.04263485,-75.1855719,"2020","Y"
"488",293853,"15","1",2020-11-28 07:14:00,2020-11-28,02:14:00,2,202015093985,"4700 BLOCK WORTH ST",300,"Robbery Firearm",-75.07669089,40.00983081,40.00983081,-75.07669089,"2020","Y"
"489",293855,"15","1",2020-12-02 22:18:00,2020-12-02,17:18:00,17,202015094989,"4600 BLOCK FRANKFORD AVE",400,"Aggravated Assault Firearm",-75.08552148,40.01479695,40.01479695,-75.08552148,"2020","Y"
"490",293865,"16","1",2020-12-22 02:41:00,2020-12-21,21:41:00,21,202016046700,"600 BLOCK N 36TH ST",400,"Aggravated Assault Firearm",-75.19472891,39.96491279,39.96491279,-75.19472891,"2020","Y"
"491",289126,"25","3",2020-12-11 20:33:00,2020-12-11,15:33:00,15,202025079357,"600 BLOCK E WILLARD ST",400,"Aggravated Assault Firearm",-75.1182405,39.9983032,39.9983032,-75.1182405,"2020","Y"
"492",289129,"39","3",2020-09-02 16:58:00,2020-09-02,12:58:00,12,202039053325,"2900 BLOCK N 22ND ST",400,"Aggravated Assault Firearm",-75.16689766,39.99869741,39.99869741,-75.16689766,"2020","Y"
"493",289131,"22","1",2020-10-11 04:30:00,2020-10-11,00:30:00,0,202022068887,"1800 BLOCK DIAMOND ST",300,"Robbery Firearm",-75.16375021,39.98566627,39.98566627,-75.16375021,"2020","Y"
"494",289144,"39","2",2020-12-15 17:48:00,2020-12-15,12:48:00,12,202039073848,"N BROAD ST  /  W WINGOHOCKING ST",400,"Aggravated Assault Firearm",-75.14856934,40.02148521,40.0214852,-75.14856934,"2020","Y"
"495",289558,"15","2",2020-10-04 03:10:00,2020-10-03,23:10:00,23,202015079393,"5200 BLOCK GILLESPIE ST",300,"Robbery Firearm",-75.07035205,40.01672969,40.01672969,-75.07035205,"2020","Y"
"496",289575,"24","1",2020-10-19 01:06:00,2020-10-18,21:06:00,21,202024075096,"1400 BLOCK E HUNTING PARK AVE",300,"Robbery Firearm",-75.09936143,40.01042204,40.01042204,-75.09936143,"2020","Y"
"497",289582,"15","1",2020-09-19 17:22:00,2020-09-19,13:22:00,13,202015074888,"1500 BLOCK WOMRATH ST",400,"Aggravated Assault Firearm",-75.0915619,40.00997509,40.00997509,-75.0915619,"2020","Y"
"498",290001,"25","2",2020-10-13 19:59:00,2020-10-13,15:59:00,15,202025066962,"5000 BLOCK ORMES ST",400,"Aggravated Assault Firearm",-75.1188657,40.02511334,40.02511334,-75.1188657,"2020","Y"
"499",290011,"24","3",2020-12-29 21:17:00,2020-12-29,16:17:00,16,202024091337,"ARAMINGO AV  /  E CLEARFIELD ST",400,"Aggravated Assault Firearm",-75.11189068,39.9863051,39.9863051,-75.11189068,"2020","Y"
"500",290455,"14","2",2020-12-26 01:58:00,2020-12-25,20:58:00,20,202014076799,"BAYNTON ST  /  E PASTORIUS ST",400,"Aggravated Assault Firearm",-75.17774258,40.0433559,40.0433559,-75.17774258,"2020","Y"
"501",291330,"22","1",2020-09-02 19:20:00,2020-09-02,15:20:00,15,202022060050,"N WOODSTOCK ST  /  DIAMOND ST",400,"Aggravated Assault Firearm",-75.16675567,39.98606504,39.98606504,-75.16675567,"2020","Y"
"502",291341,"25","1",2020-12-16 04:26:00,2020-12-15,23:26:00,23,202025080380,"4300 BLOCK N FRANKLIN ST",400,"Aggravated Assault Firearm",-75.13878646,40.01868732,40.01868732,-75.13878646,"2020","Y"
"503",291349,"03","1",2020-11-10 22:39:00,2020-11-10,17:39:00,17,202003058145,"1200 BLOCK CARPENTER ST",400,"Aggravated Assault Firearm",-75.16277851,39.93861558,39.93861558,-75.16277851,"2020","Y"
"504",291780,"24","3",2020-08-15 12:46:00,2020-08-15,08:46:00,8,202024058235,"3200 BLOCK TULIP ST",400,"Aggravated Assault Firearm",-75.10734236,39.98965404,39.98965404,-75.10734236,"2020","Y"
"505",291787,"15","2",2020-11-30 07:53:00,2020-11-30,02:53:00,2,202015094403,"2000 BLOCK ANCHOR ST",400,"Aggravated Assault Firearm",-75.06488369,40.01629923,40.01629923,-75.06488369,"2020","Y"
"506",292218,"01","1",2020-11-28 02:46:00,2020-11-27,21:46:00,21,202001028912,"2000 BLOCK S CLEVELAND ST",400,"Aggravated Assault Firearm",-75.17639723,39.92650114,39.92650114,-75.17639723,"2020","Y"
"507",292222,"03","3",2020-12-14 09:54:00,2020-12-14,04:54:00,4,202003063520,"2100 BLOCK S 13TH ST",300,"Robbery Firearm",-75.16759189,39.924115,39.924115,-75.16759189,"2020","Y"
"508",292232,"12","4",2020-12-06 20:11:00,2020-12-06,15:11:00,15,202012085861,"5800 BLOCK FERNWOOD ST",400,"Aggravated Assault Firearm",-75.23847758,39.94435677,39.94435677,-75.23847758,"2020","Y"
"509",292235,"02","2",2020-09-15 07:09:00,2020-09-15,03:09:00,3,202002042782,"400 BLOCK COMLY ST",400,"Aggravated Assault Firearm",-75.10407895,40.04672506,40.04672506,-75.10407895,"2020","Y"
"510",292653,"02","2",2020-11-30 14:51:00,2020-11-30,09:51:00,9,202002055280,"2100 BLOCK COTTMAN AVE",300,"Robbery Firearm",-75.06301022,40.0485113,40.0485113,-75.06301022,"2020","Y"
"511",292657,"15","2",2020-09-19 02:17:00,2020-09-18,22:17:00,22,202015074768,"5800 BLOCK HEGERMAN ST",400,"Aggravated Assault Firearm",-75.06099155,40.01533611,40.01533611,-75.06099155,"2020","Y"
"512",292659,"24","2",2020-09-27 22:05:00,2020-09-27,18:05:00,18,202024069672,"2700 BLOCK KENSINGTON AVE",300,"Robbery Firearm",-75.12549354,39.98984598,39.98984598,-75.12549354,"2020","Y"
"513",292674,"15","1",2020-10-15 05:04:00,2020-10-15,01:04:00,1,202015082399,"4900 BLOCK FRANKFORD AVE",400,"Aggravated Assault Firearm",-75.08092635,40.01976492,40.01976492,-75.08092635,"2020","Y"
"514",292676,"14","1",2020-11-17 14:13:00,2020-11-17,09:13:00,9,202014070098,"1300 BLOCK E RITTENHOUSE ST",400,"Aggravated Assault Firearm",-75.15935045,40.05357859,40.05357859,-75.15935044,"2020","Y"
"515",287460,"26","1",2020-09-09 14:24:00,2020-09-09,10:24:00,10,202026033656,"2400 BLOCK N FAIRHILL ST",400,"Aggravated Assault Firearm",-75.14251239,39.9876882,39.9876882,-75.14251239,"2020","Y"
"516",287467,"19","2",2020-12-21 23:07:00,2020-12-21,18:07:00,18,202019077273,"1200 BLOCK N 52ND ST",300,"Robbery Firearm",-75.22598956,39.97223142,39.97223142,-75.22598956,"2020","Y"
"517",288317,"02","1",2020-10-20 02:20:00,2020-10-19,22:20:00,22,202002048900,"1700 BLOCK MAGEE AVE",400,"Aggravated Assault Firearm",-75.07002835,40.0391484,40.0391484,-75.07002835,"2020","Y"
"518",288323,"16","1",2020-11-16 16:27:00,2020-11-16,11:27:00,11,202016042688,"N 40TH ST  /  W GIRARD AV",400,"Aggravated Assault Firearm",-75.20431733,39.97412682,39.97412682,-75.20431733,"2020","Y"
